
	{
		"loc": {
			"type": "Point",
			"coordinates": [
				0.9945224,
				47.8063675
			]
		},
		"category": "cafe",
		"name": "Bar des Côteaux du Loir"
	},
	{
		"loc": {
			"type": "Point",
			"coordinates": [
				2.1316176,
				48.8073868
			]
		},
		"category": "pub",
		"name": "Franco-Belge"
	},
	 {
		"loc": {
			"type": "Point",
			"coordinates": [
				2.1318574,
				48.8073291
			]
		},
		"category": "pub",
		"name": "Les Touristes"
	},
	 {
		"loc": {
			"type": "Point",
			"coordinates": [
				2.1825697,
				48.7843832
			]
		},
		"category": "cafe"
	},
	 {
		"loc": {
			"type": "Point",
			"coordinates": [
				2.1911184,
				48.7833935
			]
		},
		"category": "cafe",
		"name": "Bar de la Mairie"
	},
	 {
		"loc": {
			"type": "Point",
			"coordinates": [
				2.1693597,
				48.7654703
			]
		},
		"category": "cafe",
		"name": "La Grappe d'Or"
	},
	 {
		"loc": {
			"type": "Point",
			"coordinates": [
				2.2068942,
				48.8222833
			]
		},
		"category": "cafe",
		"name": "Bar Tabac L'Européen"
	},
	 {
		"loc": {
			"type": "Point",
			"coordinates": [
				2.1524138,
				48.8089046
			]
		},
		"category": "cafe",
		"name": "Le Voltigeur"
	},
	 {
		"loc": {
			"type": "Point",
			"coordinates": [
				0.1185585,
				49.4927414
			]
		},
		"category": "bar",
		"name": "Le Plazza"
	},
	 {
		"loc": {
			"type": "Point",
			"coordinates": [
				2.3950337,
				47.0850674
			]
		},
		"adress": {
			"addr:housenumber": "1",
			"addr:street": "Place Cujas"
		},
		"category": "cafe",
		"name": "Le Cujas"
	},
	 {
		"loc": {
			"type": "Point",
			"coordinates": [
				2.1350615,
				48.7980366
			]
		},
		"category": "pub",
		"name": "L'Avenir"
	},
	 {
		"loc": {
			"type": "Point",
			"coordinates": [
				2.3275703,
				48.8688161
			]
		},
		"category": "bar",
		"name": "Bar Hemingway"
	},
	 {
		"loc": {
			"type": "Point",
			"coordinates": [
				2.3435168,
				48.8618419
			]
		},
		"category": "cafe",
		"name": "Le Comptoir Paris-Marrakech"
	},
	 {
		"loc": {
			"type": "Point",
			"coordinates": [
				2.3374638,
				48.8624039
			]
		},
		"category": "nightclub",
		"name": "Le Cab"
	},
	 {
		"loc": {
			"type": "Point",
			"coordinates": [
				2.3370822,
				48.8663165
			]
		},
		"category": "bar",
		"name": "Juvénile's"
	},
	 {
		"loc": {
			"type": "Point",
			"coordinates": [
				2.3359304,
				48.8616428
			]
		},
		"category": "cafe",
		"name": "Café Marly",
		"opening_hours": "Mo-Su 08:00-02:00"
	},
	 {
		"loc": {
			"type": "Point",
			"coordinates": [
				2.3382902,
				48.8663449
			]
		},
		"category": "bar",
		"name": "Willi's Wine Bar"
	},
	 {
		"loc": {
			"type": "Point",
			"coordinates": [
				2.35533,
				48.8654622
			]
		},
		"category": "cafe",
		"name": "Café des Arts et Métiers"
	},
	 {
		"loc": {
			"type": "Point",
			"coordinates": [
				2.3543144,
				48.8644553
			]
		},
		"category": "cafe",
		"name": "Andy Wahloo"
	},
	 {
		"loc": {
			"type": "Point",
			"coordinates": [
				2.3503038,
				48.8643869
			]
		},
		"category": "pub",
		"name": "The Frog & Rosbif"
	},
	 {
		"loc": {
			"type": "Point",
			"coordinates": [
				2.3317879,
				48.8695611
			]
		},
		"category": "bar",
		"name": "Footsie"
	},
	 {
		"loc": {
			"type": "Point",
			"coordinates": [
				2.3321035,
				48.8691942
			]
		},
		"adress": {
			"addr:housenumber": "5",
			"addr:postcode": "75002",
			"addr:street": "Rue Daunou"
		},
		"category": "bar",
		"name": "Harry's Bar"
	},
	 {
		"loc": {
			"type": "Point",
			"coordinates": [
				2.3442726,
				48.8663658
			]
		},
		"category": "cafe",
		"name": "Café Noir"
	},
	 {
		"loc": {
			"type": "Point",
			"coordinates": [
				2.3609683,
				48.8562533
			]
		},
		"category": "cafe",
		"name": "Le Loir dans la Théière"
	},
	 {
		"loc": {
			"type": "Point",
			"coordinates": [
				2.3566096,
				48.8577346
			]
		},
		"category": "cafe",
		"name": "Mariage Frères"
	},
	 {
		"loc": {
			"type": "Point",
			"coordinates": [
				2.3591057,
				48.8553135
			]
		},
		"category": "pub",
		"name": "The Auld Alliance Scottish Pub"
	},
	 {
		"loc": {
			"type": "Point",
			"coordinates": [
				2.3682805,
				48.8536147
			]
		},
		"category": "cafe",
		"name": "Café des Phares",
		"opening_hours": "Mo-Su 07:00-02:00"
	},
	 {
		"loc": {
			"type": "Point",
			"coordinates": [
				2.3540705,
				48.8533255
			]
		},
		"category": "cafe",
		"name": "Café Le Lutètia"
	},
	 {
		"loc": {
			"type": "Point",
			"coordinates": [
				2.3563278,
				48.8573914
			]
		},
		"category": "pub",
		"name": "Le Lizard Lounge"
	},
	 {
		"loc": {
			"type": "Point",
			"coordinates": [
				2.3576301,
				48.8574318
			]
		},
		"category": "cafe",
		"name": "Au Petit Fer à Cheval"
	},
	 {
		"loc": {
			"type": "Point",
			"coordinates": [
				2.3577144,
				48.8572146
			]
		},
		"category": "cafe",
		"name": "La Chaise au Plafond"
	},
	 {
		"loc": {
			"type": "Point",
			"coordinates": [
				2.3576336,
				48.8577212
			]
		},
		"category": "cafe",
		"name": "Les Etages"
	},
	 {
		"loc": {
			"type": "Point",
			"coordinates": [
				2.3573717,
				48.8563923
			]
		},
		"category": "cafe",
		"name": "Stolly's"
	},
	 {
		"loc": {
			"type": "Point",
			"coordinates": [
				2.3467084,
				48.8526137
			]
		},
		"category": "pub",
		"name": "Polly Magoo"
	},
	 {
		"loc": {
			"type": "Point",
			"coordinates": [
				2.3495493,
				48.8429884
			]
		},
		"category": "pub",
		"name": "The Fifth Bar"
	},
	 {
		"loc": {
			"type": "Point",
			"coordinates": [
				2.3498473,
				48.8423393
			]
		},
		"category": "pub",
		"name": "Le Vieux Chêne"
	},
	 {
		"loc": {
			"type": "Point",
			"coordinates": [
				2.3471573,
				48.8474495
			]
		},
		"category": "pub",
		"name": "La Tireuse"
	},
	 {
		"loc": {
			"type": "Point",
			"coordinates": [
				2.3385693,
				48.8510774
			]
		},
		"category": "bar",
		"name": "10 Bar International"
	},
	 {
		"loc": {
			"type": "Point",
			"coordinates": [
				2.3330795,
				48.8540787
			]
		},
		"category": "cafe",
		"name": "Les Deux Magots"
	},
	 {
		"loc": {
			"type": "Point",
			"coordinates": [
				2.3326307,
				48.8541444
			]
		},
		"category": "cafe",
		"name": "Café de Flore"
	},
	 {
		"loc": {
			"type": "Point",
			"coordinates": [
				2.3215688,
				48.8680799
			]
		},
		"category": "bar",
		"name": "Buddha Bar"
	},
	 {
		"loc": {
			"type": "Point",
			"coordinates": [
				2.3778893,
				48.8656637
			]
		},
		"category": "bar",
		"name": "Chez Justine",
		"opening_hours": "Mo-Su 8:00-2:00"
	},
	 {
		"loc": {
			"type": "Point",
			"coordinates": [
				2.3779414,
				48.8658803
			]
		},
		"category": "cafe",
		"name": "Nouveau Casino et Café Charbon"
	},
	 {
		"loc": {
			"type": "Point",
			"coordinates": [
				2.3781951,
				48.8657344
			]
		},
		"category": "cafe",
		"name": "Café Mercerie"
	},
	 {
		"loc": {
			"type": "Point",
			"coordinates": [
				2.3763355,
				48.8655073
			]
		},
		"category": "cafe",
		"name": "Mecano Bar"
	},
	 {
		"loc": {
			"type": "Point",
			"coordinates": [
				2.3791601,
				48.8659834
			]
		},
		"adress": {
			"addr:city": "Paris",
			"addr:housenumber": "114",
			"addr:postcode": "75011",
			"addr:street": "Rue Oberkampf"
		},
		"category": "pub",
		"name": "Le 114",
		"opening_hours": "We-Sa 20:00-04:30"
	},
	 {
		"loc": {
			"type": "Point",
			"coordinates": [
				2.3810388,
				48.8663909
			]
		},
		"category": "cafe",
		"name": "Le Scherkhan"
	},
	 {
		"loc": {
			"type": "Point",
			"coordinates": [
				2.3742095,
				48.8527123
			]
		},
		"category": "pub",
		"name": "Entre Potes"
	},
	 {
		"loc": {
			"type": "Point",
			"coordinates": [
				2.3793218,
				48.8333341
			]
		},
		"category": "nightclub",
		"name": "Batofar"
	},
	 {
		"loc": {
			"type": "Point",
			"coordinates": [
				2.4730864,
				49.0333059
			]
		},
		"category": "pub",
		"name": "Pub 28"
	},
	 {
		"loc": {
			"type": "Point",
			"coordinates": [
				2.4743481,
				49.0315931
			]
		},
		"category": "cafe",
		"name": "Café de la Mairie"
	},
	 {
		"loc": {
			"type": "Point",
			"coordinates": [
				2.2880988,
				48.8646895
			]
		},
		"adress": {
			"addr:city": "Paris",
			"addr:housenumber": "110 bis",
			"addr:postcode": "75116",
			"addr:street": "Avenue Kléber"
		},
		"category": "pub",
		"name": "Frog XVI"
	},
	 {
		"loc": {
			"type": "Point",
			"coordinates": [
				2.2852551,
				48.8802602
			]
		},
		"adress": {
			"addr:city": "Paris",
			"addr:housenumber": "71",
			"addr:postcode": "75017",
			"addr:street": "Boulevard Gouvion-Saint-Cyr"
		},
		"category": "pub",
		"name": "James Joyce",
		"opening_hours": "Mo-Su 18:00-01:30"
	},
	 {
		"loc": {
			"type": "Point",
			"coordinates": [
				2.3915789,
				48.8689647
			]
		},
		"category": "nightclub",
		"name": "La Miroiterie"
	},
	 {
		"loc": {
			"type": "Point",
			"coordinates": [
				2.3574473,
				48.8615333
			]
		},
		"category": "pub",
		"name": "The Quiet Man"
	},
	 {
		"loc": {
			"type": "Point",
			"coordinates": [
				2.3693549,
				48.8470403
			]
		},
		"category": "cafe",
		"name": "Le café populaire",
		"opening_hours": "Mo-Sa 07:00-23:00"
	},
	 {
		"loc": {
			"type": "Point",
			"coordinates": [
				5.0256571,
				47.3195138
			]
		},
		"category": "bar",
		"name": "Le Raines"
	},
	 {
		"loc": {
			"type": "Point",
			"coordinates": [
				5.0348539,
				47.3234877
			]
		},
		"category": "pub",
		"name": "Liberté"
	},
	 {
		"loc": {
			"type": "Point",
			"coordinates": [
				5.0282445,
				47.3189238
			]
		},
		"category": "pub",
		"name": "L'Equipe"
	},
	 {
		"loc": {
			"type": "Point",
			"coordinates": [
				5.0350105,
				47.3233936
			]
		},
		"adress": {
			"addr:city": "Dijon",
			"addr:housenumber": "2",
			"addr:postcode": "21000",
			"addr:street": "Place Darcy"
		},
		"category": "cafe",
		"name": "L'édito"
	},
	 {
		"loc": {
			"type": "Point",
			"coordinates": [
				5.0435832,
				47.32087
			]
		},
		"adress": {
			"addr:city": "Dijon",
			"addr:postcode": "21000",
			"addr:street": "Place du Théatre"
		},
		"category": "cafe",
		"name": "Trinidad"
	},
	 {
		"loc": {
			"type": "Point",
			"coordinates": [
				5.030772,
				47.318261
			]
		},
		"category": "cafe",
		"name": "Brasserie du Faubourg"
	},
	 {
		"loc": {
			"type": "Point",
			"coordinates": [
				2.5596348,
				48.8433945
			]
		},
		"category": "pub",
		"name": "Le Petit Magot"
	},
	 {
		"loc": {
			"type": "Point",
			"coordinates": [
				2.3379065,
				48.851478
			]
		},
		"category": "pub",
		"name": "Fubar"
	},
	 {
		"loc": {
			"type": "Point",
			"coordinates": [
				5.0542335,
				47.3111128
			]
		},
		"category": "pub",
		"name": "Bar le P'tit Pontoux"
	},
	 {
		"loc": {
			"type": "Point",
			"coordinates": [
				5.0527631,
				47.3111146
			]
		},
		"category": "cafe",
		"name": "Bar Brasserie la Barrière"
	},
	 {
		"loc": {
			"type": "Point",
			"coordinates": [
				2.3032066,
				48.8416654
			]
		},
		"category": "cafe",
		"name": "Le Général Beuret"
	},
	 {
		"loc": {
			"type": "Point",
			"coordinates": [
				2.302926,
				48.8420231
			]
		},
		"category": "cafe",
		"name": "L'Angle"
	},
	 {
		"loc": {
			"type": "Point",
			"coordinates": [
				5.021565,
				47.3291046
			]
		},
		"category": "pub",
		"name": "Le Bilboquet"
	},
	 {
		"loc": {
			"type": "Point",
			"coordinates": [
				5.0270656,
				47.3325
			]
		},
		"category": "pub",
		"name": "Bar Les Hirondelles"
	},
	 {
		"loc": {
			"type": "Point",
			"coordinates": [
				2.3031638,
				48.8428872
			]
		},
		"category": "cafe",
		"name": "Les artisans"
	},
	 {
		"loc": {
			"type": "Point",
			"coordinates": [
				2.3237083,
				48.8425946
			]
		},
		"category": "pub",
		"name": "The Financier"
	},
	 {
		"loc": {
			"type": "Point",
			"coordinates": [
				5.0330236,
				47.3266726
			]
		},
		"category": "pub",
		"name": "Le Marais"
	},
	 {
		"loc": {
			"type": "Point",
			"coordinates": [
				5.0384742,
				47.3282382
			]
		},
		"category": "pub",
		"name": "Le Tabazinc"
	},
	 {
		"loc": {
			"type": "Point",
			"coordinates": [
				5.035263,
				47.3304364
			]
		},
		"category": "pub",
		"name": "Le Petit Patapon"
	},
	 {
		"loc": {
			"type": "Point",
			"coordinates": [
				5.0390721,
				47.3291561
			]
		},
		"category": "pub",
		"name": "Le Jouvence"
	},
	 {
		"loc": {
			"type": "Point",
			"coordinates": [
				5.041043,
				47.3307835
			]
		},
		"category": "cafe",
		"name": "Restaurant Café la Sablière"
	},
	 {
		"loc": {
			"type": "Point",
			"coordinates": [
				5.043817,
				47.3337208
			]
		},
		"category": "cafe",
		"name": "Bar Tabac PMU"
	},
	 {
		"loc": {
			"type": "Point",
			"coordinates": [
				5.0426096,
				47.331146
			]
		},
		"category": "pub",
		"name": "Antrejeux"
	},
	 {
		"loc": {
			"type": "Point",
			"coordinates": [
				5.0487597,
				47.3307471
			]
		},
		"category": "pub",
		"name": "A la Bonne Heure"
	},
	 {
		"loc": {
			"type": "Point",
			"coordinates": [
				5.0483524,
				47.3311268
			]
		},
		"category": "pub",
		"name": "Bar le Vega"
	},
	 {
		"loc": {
			"type": "Point",
			"coordinates": [
				5.048487,
				47.3335558
			],
			"geometry": [
				[
					5.0480923,
					47.3336138
				],
				[
					5.048078,
					47.3335656
				],
				[
					5.0481577,
					47.3335562
				],
				[
					5.0481431,
					47.3335011
				],
				[
					5.0481983,
					47.3334943
				],
				[
					5.0481794,
					47.3334215
				],
				[
					5.0482549,
					47.3334133
				],
				[
					5.048268,
					47.333457
				],
				[
					5.0484558,
					47.3334342
				],
				[
					5.0484759,
					47.3335133
				],
				[
					5.0483322,
					47.3335297
				],
				[
					5.0483248,
					47.3334997
				],
				[
					5.0483049,
					47.3335023
				],
				[
					5.0483119,
					47.3335316
				],
				[
					5.0483028,
					47.3335333
				],
				[
					5.0483096,
					47.3335566
				],
				[
					5.048455,
					47.3335413
				],
				[
					5.0484536,
					47.3335317
				],
				[
					5.0484804,
					47.333529
				],
				[
					5.048487,
					47.3335558
				],
				[
					5.048487,
					47.3335558
				],
				[
					5.0484905,
					47.3335683
				],
				[
					5.0484551,
					47.3335964
				],
				[
					5.04823,
					47.33362
				],
				[
					5.0482252,
					47.3335973
				],
				[
					5.0480923,
					47.3336138
				]
			]
		},
		"category": "pub",
		"name": "Black Dragon"
	},
	 {
		"loc": {
			"type": "Point",
			"coordinates": [
				5.0522097,
				47.3310746
			]
		},
		"category": "pub",
		"name": "Le Marbotte"
	},
	 {
		"loc": {
			"type": "Point",
			"coordinates": [
				5.0524537,
				47.3332352
			]
		},
		"category": "pub",
		"name": "Les Troenes"
	},
	 {
		"loc": {
			"type": "Point",
			"coordinates": [
				2.3556646,
				48.8492048
			]
		},
		"category": "cafe",
		"name": "L'Institut"
	},
	 {
		"loc": {
			"type": "Point",
			"coordinates": [
				5.0488513,
				47.3337681
			]
		},
		"category": "pub",
		"name": "Jura Bar"
	},
	 {
		"loc": {
			"type": "Point",
			"coordinates": [
				5.0351651,
				47.3194186
			]
		},
		"category": "pub",
		"name": "Les Berthoms"
	},
	 {
		"loc": {
			"type": "Point",
			"coordinates": [
				2.2691302,
				48.9154646
			]
		},
		"category": "bar",
		"name": "Le Moderne"
	},
	 {
		"loc": {
			"type": "Point",
			"coordinates": [
				2.3099256,
				48.8457331
			]
		},
		"category": "cafe",
		"name": "Le Cristal"
	},
	 {
		"loc": {
			"type": "Point",
			"coordinates": [
				2.3250816,
				48.851795
			]
		},
		"category": "cafe",
		"name": "Le Babylone"
	},
	 {
		"loc": {
			"type": "Point",
			"coordinates": [
				2.1677575,
				48.7636871
			]
		},
		"category": "pub",
		"name": "Le Bonnard"
	},
	 {
		"loc": {
			"type": "Point",
			"coordinates": [
				2.3238386,
				48.8460429
			]
		},
		"category": "pub",
		"name": "Forum Café"
	},
	 {
		"loc": {
			"type": "Point",
			"coordinates": [
				2.2962881,
				49.8936859
			]
		},
		"category": "pub"
	},
	 {
		"loc": {
			"type": "Point",
			"coordinates": [
				5.0293565,
				47.3237
			]
		},
		"category": "pub",
		"name": "UnderCity MultiRezo"
	},
	 {
		"loc": {
			"type": "Point",
			"coordinates": [
				1.0979468,
				49.4426207
			]
		},
		"category": "pub",
		"name": "O'Kallaghan's"
	},
	 {
		"loc": {
			"type": "Point",
			"coordinates": [
				1.0342895,
				49.0241056
			]
		},
		"category": "cafe",
		"name": "a la bon'heure (bar/brasserie)"
	},
	 {
		"loc": {
			"type": "Point",
			"coordinates": [
				2.4060327,
				48.7680927
			]
		},
		"category": "pub",
		"name": "Café des Écoles"
	},
	 {
		"loc": {
			"type": "Point",
			"coordinates": [
				2.4157795,
				48.7675166
			]
		},
		"category": "pub"
	},
	 {
		"loc": {
			"type": "Point",
			"coordinates": [
				2.373815,
				48.8524729
			]
		},
		"category": "cafe",
		"name": "Café du Passage"
	},
	 {
		"loc": {
			"type": "Point",
			"coordinates": [
				2.3692879,
				48.867235
			]
		},
		"category": "pub",
		"name": "Ô Chateau, Paris Wine Tasting"
	},
	 {
		"loc": {
			"type": "Point",
			"coordinates": [
				2.3406703,
				48.8950594
			]
		},
		"category": "cafe",
		"name": "Truc Café"
	},
	 {
		"loc": {
			"type": "Point",
			"coordinates": [
				2.3828693,
				48.8826925
			]
		},
		"category": "bar",
		"name": "Kaskad' Café"
	},
	 {
		"loc": {
			"type": "Point",
			"coordinates": [
				2.3855356,
				48.8662404
			]
		},
		"category": "bar",
		"name": "Lou Pascalou"
	},
	 {
		"loc": {
			"type": "Point",
			"coordinates": [
				2.1834517,
				48.859273
			]
		},
		"category": "pub",
		"name": "Le Chiquito"
	},
	 {
		"loc": {
			"type": "Point",
			"coordinates": [
				2.3211298,
				48.7929017
			]
		},
		"category": "cafe"
	},
	 {
		"loc": {
			"type": "Point",
			"coordinates": [
				2.5580115,
				48.8486707
			]
		},
		"category": "pub"
	},
	 {
		"loc": {
			"type": "Point",
			"coordinates": [
				5.0356205,
				47.3187416
			]
		},
		"category": "pub",
		"name": "Les aviateurs"
	},
	 {
		"loc": {
			"type": "Point",
			"coordinates": [
				2.3036858,
				49.8956342
			]
		},
		"category": "bar",
		"name": "Manneken Pis"
	},
	 {
		"loc": {
			"type": "Point",
			"coordinates": [
				2.303776,
				49.8957068
			]
		},
		"category": "bar",
		"name": "Couleur Café"
	},
	 {
		"loc": {
			"type": "Point",
			"coordinates": [
				2.3038803,
				49.8957681
			]
		},
		"category": "bar",
		"name": "Rétroviseur"
	},
	 {
		"loc": {
			"type": "Point",
			"coordinates": [
				2.3034299,
				49.8956062
			]
		},
		"category": "bar"
	},
	 {
		"loc": {
			"type": "Point",
			"coordinates": [
				2.3505855,
				48.8652332
			]
		},
		"category": "bar",
		"name": "La Cordonnerie"
	},
	 {
		"loc": {
			"type": "Point",
			"coordinates": [
				2.3377037,
				48.8761301
			]
		},
		"category": "pub",
		"name": "Le Syphax"
	},
	 {
		"loc": {
			"type": "Point",
			"coordinates": [
				2.3458247,
				48.8657442
			]
		},
		"category": "cafe",
		"name": "Pouchla"
	},
	 {
		"loc": {
			"type": "Point",
			"coordinates": [
				2.1791741,
				48.8773631
			]
		},
		"category": "pub",
		"name": "L'Adresse",
		"opening_hours": "Mo-Su 07:00-01:00"
	},
	 {
		"loc": {
			"type": "Point",
			"coordinates": [
				2.1779295,
				48.8753535
			]
		},
		"category": "pub",
		"name": "Le bar du Château"
	},
	 {
		"loc": {
			"type": "Point",
			"coordinates": [
				2.1809564,
				48.8760555
			]
		},
		"category": "pub",
		"name": "Le Beauharnais"
	},
	 {
		"loc": {
			"type": "Point",
			"coordinates": [
				2.1805355,
				48.8772684
			]
		},
		"category": "pub",
		"name": "Café Leffe",
		"opening_hours": "Mo-Sa 12:00-15:00,19:00-01:00"
	},
	 {
		"loc": {
			"type": "Point",
			"coordinates": [
				2.709867,
				48.2399118
			]
		},
		"category": "nightclub"
	},
	 {
		"loc": {
			"type": "Point",
			"coordinates": [
				2.4161697,
				48.7676466
			]
		},
		"category": "pub",
		"name": "Le Pompadour"
	},
	 {
		"loc": {
			"type": "Point",
			"coordinates": [
				2.2951311,
				49.8893243
			]
		},
		"category": "pub",
		"name": "Le Lucullus"
	},
	 {
		"loc": {
			"type": "Point",
			"coordinates": [
				2.3639036,
				48.866725
			]
		},
		"category": "cafe",
		"name": "Cafe République"
	},
	 {
		"loc": {
			"type": "Point",
			"coordinates": [
				2.3669492,
				48.8665492
			]
		},
		"category": "cafe",
		"name": "Toucan Cafe"
	},
	 {
		"loc": {
			"type": "Point",
			"coordinates": [
				2.3861008,
				48.8632411
			]
		},
		"category": "pub",
		"name": "Le Bistro Voltaire"
	},
	 {
		"loc": {
			"type": "Point",
			"coordinates": [
				2.3872306,
				48.8626607
			]
		},
		"category": "pub",
		"name": "Au Rond Point"
	},
	 {
		"loc": {
			"type": "Point",
			"coordinates": [
				2.3755952,
				48.8786773
			]
		},
		"category": "cafe",
		"name": "Le Murger"
	},
	 {
		"loc": {
			"type": "Point",
			"coordinates": [
				2.3739646,
				48.8779867
			]
		},
		"category": "bar",
		"name": "Le Navigateur"
	},
	 {
		"loc": {
			"type": "Point",
			"coordinates": [
				2.3737861,
				48.8782398
			]
		},
		"category": "cafe",
		"name": "La Forge"
	},
	 {
		"loc": {
			"type": "Point",
			"coordinates": [
				2.3710006,
				48.8781543
			]
		},
		"category": "cafe",
		"name": "Café des Dames"
	},
	 {
		"loc": {
			"type": "Point",
			"coordinates": [
				2.3752962,
				48.8740973
			]
		},
		"category": "cafe",
		"name": "Café Chéri(e)"
	},
	 {
		"loc": {
			"type": "Point",
			"coordinates": [
				2.373015,
				48.8811959
			]
		},
		"category": "cafe",
		"name": "Le Dauphin"
	},
	 {
		"loc": {
			"type": "Point",
			"coordinates": [
				2.3725952,
				48.8783411
			]
		},
		"category": "cafe",
		"name": "Les Frangins"
	},
	 {
		"loc": {
			"type": "Point",
			"coordinates": [
				2.3707556,
				48.8838984
			]
		},
		"adress": {
			"addr:city": "Paris",
			"addr:housenumber": "10",
			"addr:postcode": "75019",
			"addr:street": "Place de la Bataille de Stalingrad"
		},
		"category": "bar",
		"name": "25° Est"
	},
	 {
		"loc": {
			"type": "Point",
			"coordinates": [
				2.3719174,
				48.8841289
			]
		},
		"category": "cafe",
		"name": "M'Café"
	},
	 {
		"loc": {
			"type": "Point",
			"coordinates": [
				2.1945848,
				47.3497838
			]
		},
		"category": "pub"
	},
	 {
		"loc": {
			"type": "Point",
			"coordinates": [
				2.490292,
				48.79896
			],
			"geometry": [
				[
					2.490424,
					48.79885
				],
				[
					2.490489,
					48.798883
				],
				[
					2.49047,
					48.798899
				],
				[
					2.49046,
					48.798895
				],
				[
					2.490427,
					48.798923
				],
				[
					2.490441,
					48.798931
				],
				[
					2.490428,
					48.798942
				],
				[
					2.490424,
					48.79894
				],
				[
					2.490416,
					48.798946
				],
				[
					2.490436,
					48.798957
				],
				[
					2.490391,
					48.798991
				],
				[
					2.490355,
					48.798992
				],
				[
					2.4903235,
					48.798976
				],
				[
					2.490292,
					48.79896
				],
				[
					2.490292,
					48.79896
				],
				[
					2.4903617,
					48.7989019
				],
				[
					2.490424,
					48.79885
				]
			]
		},
		"category": "pub",
		"name": "Le Chat Teigne"
	},
	 {
		"loc": {
			"type": "Point",
			"coordinates": [
				2.2794265,
				48.8272454
			]
		},
		"category": "cafe",
		"name": "Café Français"
	},
	 {
		"loc": {
			"type": "Point",
			"coordinates": [
				2.4199534,
				48.7658703
			]
		},
		"category": "bar"
	},
	 {
		"loc": {
			"type": "Point",
			"coordinates": [
				2.2726432,
				48.8240229
			]
		},
		"category": "cafe",
		"name": "Comptoir d'Issy"
	},
	 {
		"loc": {
			"type": "Point",
			"coordinates": [
				2.2730112,
				48.8239167
			]
		},
		"adress": {
			"addr:city": "Issy-les-Moulineaux",
			"addr:postcode": "92130"
		},
		"category": "cafe",
		"name": "Les Colonnes"
	},
	 {
		"loc": {
			"type": "Point",
			"coordinates": [
				2.3790168,
				48.8884003
			]
		},
		"category": "pub",
		"name": "Belushi's"
	},
	 {
		"loc": {
			"type": "Point",
			"coordinates": [
				2.4037498,
				48.7709438
			]
		},
		"category": "pub",
		"name": "Ben & Fils"
	},
	 {
		"loc": {
			"type": "Point",
			"coordinates": [
				2.4064521,
				48.7671358
			]
		},
		"category": "pub",
		"name": "Le Zola"
	},
	 {
		"loc": {
			"type": "Point",
			"coordinates": [
				2.3428904,
				48.8456068
			]
		},
		"category": "pub",
		"name": "La Fonda"
	},
	 {
		"loc": {
			"type": "Point",
			"coordinates": [
				2.0786868,
				49.0372578
			]
		},
		"category": "pub"
	},
	 {
		"loc": {
			"type": "Point",
			"coordinates": [
				2.4859589,
				48.7980158
			]
		},
		"category": "cafe",
		"name": "L'évasion"
	},
	 {
		"loc": {
			"type": "Point",
			"coordinates": [
				2.3251655,
				48.8851266
			]
		},
		"category": "pub",
		"name": "Lush",
		"opening_hours": "Mo-Su 00:00-02:00,17:00-24:00"
	},
	 {
		"loc": {
			"type": "Point",
			"coordinates": [
				2.3213938,
				48.8881063
			]
		},
		"category": "cafe",
		"name": "Sans Gêne"
	},
	 {
		"loc": {
			"type": "Point",
			"coordinates": [
				2.3271309,
				48.8925878
			]
		},
		"category": "pub",
		"name": "Le Bar Belge"
	},
	 {
		"loc": {
			"type": "Point",
			"coordinates": [
				2.3245933,
				48.884761
			]
		},
		"category": "bar",
		"name": "Les Caves Populaires"
	},
	 {
		"loc": {
			"type": "Point",
			"coordinates": [
				2.325777,
				48.8927736
			]
		},
		"category": "cafe",
		"name": "Le Kloog"
	},
	 {
		"loc": {
			"type": "Point",
			"coordinates": [
				2.0115591,
				49.0489815
			]
		},
		"category": "pub"
	},
	 {
		"loc": {
			"type": "Point",
			"coordinates": [
				2.0196282,
				49.0332723
			]
		},
		"category": "pub"
	},
	 {
		"loc": {
			"type": "Point",
			"coordinates": [
				1.9221246,
				48.9488717
			]
		},
		"category": "pub"
	},
	 {
		"loc": {
			"type": "Point",
			"coordinates": [
				1.9222791,
				48.9484772
			]
		},
		"category": "pub"
	},
	 {
		"loc": {
			"type": "Point",
			"coordinates": [
				2.3937884,
				48.8717809
			]
		},
		"category": "pub",
		"name": "Les Trois Arts"
	},
	 {
		"loc": {
			"type": "Point",
			"coordinates": [
				2.3920862,
				48.8685166
			]
		},
		"category": "nightclub",
		"name": "La Maroquinerie"
	},
	 {
		"loc": {
			"type": "Point",
			"coordinates": [
				2.3796187,
				48.8876134
			]
		},
		"category": "cafe",
		"name": "Cafezoïde"
	},
	 {
		"loc": {
			"type": "Point",
			"coordinates": [
				2.2809503,
				48.9931958
			]
		},
		"category": "cafe",
		"name": "Tabac des Sports"
	},
	 {
		"loc": {
			"type": "Point",
			"coordinates": [
				2.3999627,
				48.8580038
			]
		},
		"category": "nightclub",
		"name": "La Goguette"
	},
	 {
		"loc": {
			"type": "Point",
			"coordinates": [
				2.4030888,
				48.8595367
			]
		},
		"category": "bar",
		"name": "Le Gambetta"
	},
	 {
		"loc": {
			"type": "Point",
			"coordinates": [
				2.4039364,
				48.8600086
			]
		},
		"category": "cafe",
		"name": "Brasserie Tabac Saint Germain"
	},
	 {
		"loc": {
			"type": "Point",
			"coordinates": [
				2.3015143,
				48.8609068
			]
		},
		"category": "cafe",
		"name": "Café de l'Alma"
	},
	 {
		"loc": {
			"type": "Point",
			"coordinates": [
				2.3261093,
				48.8894505
			]
		},
		"category": "cafe",
		"name": "Le Diplomate"
	},
	 {
		"loc": {
			"type": "Point",
			"coordinates": [
				2.2964765,
				48.8371168
			]
		},
		"category": "cafe",
		"name": "Café Convention"
	},
	 {
		"loc": {
			"type": "Point",
			"coordinates": [
				2.296071,
				48.8372174
			]
		},
		"category": "cafe",
		"name": "Dupont café"
	},
	 {
		"loc": {
			"type": "Point",
			"coordinates": [
				2.3547969,
				48.8456039
			]
		},
		"category": "pub",
		"name": "Epsilon"
	},
	 {
		"loc": {
			"type": "Point",
			"coordinates": [
				2.3548312,
				48.8453724
			]
		},
		"category": "pub",
		"name": "L'Inévitable"
	},
	 {
		"loc": {
			"type": "Point",
			"coordinates": [
				0.1608876,
				48.0143192
			]
		},
		"category": "bar",
		"name": "Le Colorado"
	},
	 {
		"loc": {
			"type": "Point",
			"coordinates": [
				2.410321,
				48.7655786
			]
		},
		"category": "cafe",
		"name": "Le Départ"
	},
	 {
		"loc": {
			"type": "Point",
			"coordinates": [
				2.3380576,
				48.8536478
			]
		},
		"category": "cafe",
		"name": "Les Étages"
	},
	 {
		"loc": {
			"type": "Point",
			"coordinates": [
				2.339084,
				48.8526502
			]
		},
		"category": "cafe",
		"name": "Relais Odéon"
	},
	 {
		"loc": {
			"type": "Point",
			"coordinates": [
				2.338277,
				48.8536059
			]
		},
		"category": "cafe",
		"name": "Café Conti"
	},
	 {
		"loc": {
			"type": "Point",
			"coordinates": [
				2.338474,
				48.8538386
			]
		},
		"category": "cafe",
		"name": "Le Buci"
	},
	 {
		"loc": {
			"type": "Point",
			"coordinates": [
				2.3370609,
				48.8539544
			]
		},
		"category": "cafe",
		"name": "Bar du Marché"
	},
	 {
		"loc": {
			"type": "Point",
			"coordinates": [
				2.3356842,
				48.8533551
			]
		},
		"category": "cafe",
		"name": "Café Mabillon"
	},
	 {
		"loc": {
			"type": "Point",
			"coordinates": [
				2.343644,
				48.841516
			]
		},
		"category": "cafe",
		"name": "Pub Gay-Lussac"
	},
	 {
		"loc": {
			"type": "Point",
			"coordinates": [
				2.3454978,
				48.844575
			]
		},
		"category": "cafe",
		"name": "Le Panthéon"
	},
	 {
		"loc": {
			"type": "Point",
			"coordinates": [
				2.396455,
				48.7595709
			]
		},
		"category": "pub",
		"name": "Le Stop Bar"
	},
	 {
		"loc": {
			"type": "Point",
			"coordinates": [
				2.4533094,
				48.7906864
			]
		},
		"category": "pub",
		"name": "L'Interlude"
	},
	 {
		"loc": {
			"type": "Point",
			"coordinates": [
				2.371249,
				48.8324164
			]
		},
		"category": "pub",
		"name": "Shannon River"
	},
	 {
		"loc": {
			"type": "Point",
			"coordinates": [
				2.256557,
				48.8267157
			]
		},
		"category": "cafe"
	},
	 {
		"loc": {
			"type": "Point",
			"coordinates": [
				2.3428278,
				48.8497377
			]
		},
		"category": "cafe",
		"name": "Le Reflet"
	},
	 {
		"loc": {
			"type": "Point",
			"coordinates": [
				2.3570528,
				48.856699
			]
		},
		"category": "cafe",
		"name": "Le Pick Clops"
	},
	 {
		"loc": {
			"type": "Point",
			"coordinates": [
				2.357984,
				48.8569081
			]
		},
		"category": "cafe",
		"name": "Café du Trésor"
	},
	 {
		"loc": {
			"type": "Point",
			"coordinates": [
				2.3539298,
				48.8333114
			]
		},
		"category": "cafe"
	},
	 {
		"loc": {
			"type": "Point",
			"coordinates": [
				2.3544305,
				48.8336129
			]
		},
		"category": "cafe"
	},
	 {
		"loc": {
			"type": "Point",
			"coordinates": [
				2.7937857,
				48.0354568
			]
		},
		"category": "pub",
		"name": "L'auberge de la Tonnelle"
	},
	 {
		"loc": {
			"type": "Point",
			"coordinates": [
				2.3483892,
				48.8522066
			]
		},
		"category": "cafe",
		"name": "Café Panis"
	},
	 {
		"loc": {
			"type": "Point",
			"coordinates": [
				2.3557731,
				48.8544496
			]
		},
		"category": "cafe",
		"name": "Caféothèque de Paris"
	},
	 {
		"loc": {
			"type": "Point",
			"coordinates": [
				2.3415804,
				48.8422244
			]
		},
		"category": "nightclub",
		"name": "Café Universel"
	},
	 {
		"loc": {
			"type": "Point",
			"coordinates": [
				2.895493,
				48.0638467
			]
		},
		"category": "cafe",
		"name": "Oh PierrO"
	},
	 {
		"loc": {
			"type": "Point",
			"coordinates": [
				2.3721212,
				48.8682344
			]
		},
		"category": "cafe",
		"name": "La Fauvette"
	},
	 {
		"loc": {
			"type": "Point",
			"coordinates": [
				1.0702539,
				49.4463886
			]
		},
		"category": "pub",
		"name": "Le Morgan"
	},
	 {
		"loc": {
			"type": "Point",
			"coordinates": [
				1.0864518,
				49.4405848
			],
			"geometry": [
				[
					1.0864776,
					49.4406266
				],
				[
					1.0863682,
					49.4406554
				],
				[
					1.0863535,
					49.4406326
				],
				[
					1.0863054,
					49.4406481
				],
				[
					1.0863069,
					49.44065
				],
				[
					1.0862737,
					49.4406604
				],
				[
					1.0862893,
					49.440682
				],
				[
					1.0862352,
					49.4407011
				],
				[
					1.0861724,
					49.4407348
				],
				[
					1.0861699,
					49.4407363
				],
				[
					1.0860744,
					49.4406618
				],
				[
					1.0861599,
					49.4406153
				],
				[
					1.0864176,
					49.4405263
				],
				[
					1.0864518,
					49.4405848
				],
				[
					1.0864518,
					49.4405848
				],
				[
					1.0864776,
					49.4406266
				]
			]
		},
		"category": "cafe",
		"name": "Au Petit Bruxelles"
	},
	 {
		"loc": {
			"type": "Point",
			"coordinates": [
				1.0875382,
				49.4412065
			],
			"geometry": [
				[
					1.0877862,
					49.4412519
				],
				[
					1.0874899,
					49.4413847
				],
				[
					1.0874244,
					49.4413213
				],
				[
					1.0874586,
					49.4413056
				],
				[
					1.0874136,
					49.4412626
				],
				[
					1.0875382,
					49.4412065
				],
				[
					1.0875382,
					49.4412065
				],
				[
					1.087674,
					49.4411458
				],
				[
					1.0877862,
					49.4412519
				]
			]
		},
		"category": "pub",
		"name": "MacNaMara"
	},
	 {
		"loc": {
			"type": "Point",
			"coordinates": [
				1.0936475,
				49.4476835
			]
		},
		"category": "cafe",
		"name": "Café de la Gare"
	},
	 {
		"loc": {
			"type": "Point",
			"coordinates": [
				2.3685496,
				48.8814427
			]
		},
		"category": "nightclub",
		"name": "Le Point Ephémère"
	},
	 {
		"loc": {
			"type": "Point",
			"coordinates": [
				1.1682512,
				49.1953634
			]
		},
		"category": "nightclub",
		"name": "Le Templier"
	},
	 {
		"loc": {
			"type": "Point",
			"coordinates": [
				2.3574834,
				48.8573363
			],
			"geometry": [
				[
					2.3578271,
					48.857137
				],
				[
					2.3576453,
					48.8572131
				],
				[
					2.3574746,
					48.8572845
				],
				[
					2.3574629,
					48.8573114
				],
				[
					2.3574834,
					48.8573363
				],
				[
					2.3574834,
					48.8573363
				],
				[
					2.3575122,
					48.8573713
				],
				[
					2.3575979,
					48.8573417
				],
				[
					2.3575785,
					48.8573201
				],
				[
					2.3576152,
					48.8573051
				],
				[
					2.3576363,
					48.8573293
				],
				[
					2.357729,
					48.8572982
				],
				[
					2.3577125,
					48.8572815
				],
				[
					2.3577492,
					48.8572664
				],
				[
					2.3577677,
					48.8572861
				],
				[
					2.3579212,
					48.8572342
				],
				[
					2.3578271,
					48.857137
				]
			]
		},
		"adress": {
			"addr:housenumber": "28",
			"addr:street": "Rue Vieille du Temple"
		},
		"category": "cafe",
		"name": "Les Philosophes",
		"opening_hours": "Mo-Sa 9:00-2:00"
	},
	 {
		"loc": {
			"type": "Point",
			"coordinates": [
				2.35773,
				48.8575522
			]
		},
		"category": "cafe",
		"name": "L'Etoile Manquante"
	},
	 {
		"loc": {
			"type": "Point",
			"coordinates": [
				2.3767493,
				48.8534187
			]
		},
		"category": "cafe",
		"name": "Le Pause Café"
	},
	 {
		"loc": {
			"type": "Point",
			"coordinates": [
				2.3344508,
				48.8522494
			]
		},
		"category": "pub",
		"name": "Little Temple Bar"
	},
	 {
		"loc": {
			"type": "Point",
			"coordinates": [
				2.2099742,
				48.7118921
			]
		},
		"category": "pub",
		"name": "BôBar"
	},
	 {
		"loc": {
			"type": "Point",
			"coordinates": [
				1.0859097,
				47.8103856
			]
		},
		"category": "cafe",
		"name": "Virage Cafe"
	},
	 {
		"loc": {
			"type": "Point",
			"coordinates": [
				2.3061283,
				48.6357192
			]
		},
		"category": "pub",
		"name": "Châlet de la Gare"
	},
	 {
		"loc": {
			"type": "Point",
			"coordinates": [
				2.3775981,
				48.8659368
			]
		},
		"category": "cafe",
		"name": "Place Verte"
	},
	 {
		"loc": {
			"type": "Point",
			"coordinates": [
				1.0911144,
				49.0083767
			]
		},
		"category": "pub",
		"name": "Le Double Jeu"
	},
	 {
		"loc": {
			"type": "Point",
			"coordinates": [
				1.021008,
				47.7963529
			]
		},
		"category": "cafe"
	},
	 {
		"loc": {
			"type": "Point",
			"coordinates": [
				1.0357992,
				47.7866065
			]
		},
		"category": "cafe"
	},
	 {
		"loc": {
			"type": "Point",
			"coordinates": [
				2.4139836,
				48.7715987
			]
		},
		"category": "pub",
		"name": "Le clair de Lune"
	},
	 {
		"loc": {
			"type": "Point",
			"coordinates": [
				4.0068516,
				49.2360743
			]
		},
		"category": "pub",
		"name": "Le Tizi"
	},
	 {
		"loc": {
			"type": "Point",
			"coordinates": [
				2.4637734,
				49.0415278
			]
		},
		"category": "pub",
		"name": "Bar des Amis"
	},
	 {
		"loc": {
			"type": "Point",
			"coordinates": [
				2.1241761,
				48.7718409
			]
		},
		"category": "cafe",
		"name": "Chez Claudia"
	},
	 {
		"loc": {
			"type": "Point",
			"coordinates": [
				2.147881,
				48.7904335
			]
		},
		"category": "pub"
	},
	 {
		"loc": {
			"type": "Point",
			"coordinates": [
				0.8336469,
				49.4162846
			]
		},
		"category": "pub",
		"name": "Bar des Chasseurs"
	},
	 {
		"loc": {
			"type": "Point",
			"coordinates": [
				2.0082489,
				48.7787769
			]
		},
		"category": "pub",
		"name": "Warm’Up"
	},
	 {
		"loc": {
			"type": "Point",
			"coordinates": [
				2.3029779,
				48.6319427
			]
		},
		"category": "pub",
		"name": "Taverne Gambrinus"
	},
	 {
		"loc": {
			"type": "Point",
			"coordinates": [
				1.8993773,
				47.9259284
			]
		},
		"category": "pub",
		"name": "Le Balzac"
	},
	 {
		"loc": {
			"type": "Point",
			"coordinates": [
				1.8999975,
				47.9148164
			]
		},
		"category": "pub",
		"name": "Le Paddock"
	},
	 {
		"loc": {
			"type": "Point",
			"coordinates": [
				1.8988597,
				47.9182806
			]
		},
		"category": "pub",
		"name": "Bar la Ville de Chartres"
	},
	 {
		"loc": {
			"type": "Point",
			"coordinates": [
				2.1513732,
				47.513175
			]
		},
		"category": "cafe"
	},
	 {
		"loc": {
			"type": "Point",
			"coordinates": [
				1.8447553,
				47.0900553
			]
		},
		"category": "cafe"
	},
	 {
		"loc": {
			"type": "Point",
			"coordinates": [
				4.9264914,
				49.7383178
			]
		},
		"category": "pub"
	},
	 {
		"loc": {
			"type": "Point",
			"coordinates": [
				2.333651,
				48.8849265
			]
		},
		"category": "cafe",
		"name": "Café des 2 Moulins"
	},
	 {
		"loc": {
			"type": "Point",
			"coordinates": [
				2.3930976,
				48.8892891
			]
		},
		"category": "cafe",
		"name": "Café de la Musique",
		"opening_hours": "Mo-Su 08:00-02:00"
	},
	 {
		"loc": {
			"type": "Point",
			"coordinates": [
				2.2468044,
				48.7176647
			]
		},
		"category": "pub",
		"name": "Tabac de la Gare"
	},
	 {
		"loc": {
			"type": "Point",
			"coordinates": [
				1.7039384,
				46.8274811
			]
		},
		"category": "cafe",
		"name": "Le Carré d'As"
	},
	 {
		"loc": {
			"type": "Point",
			"coordinates": [
				2.348417,
				48.8620035
			]
		},
		"category": "pub"
	},
	 {
		"loc": {
			"type": "Point",
			"coordinates": [
				2.377804,
				48.8658521
			]
		},
		"category": "cafe",
		"name": "Café Charbon"
	},
	 {
		"loc": {
			"type": "Point",
			"coordinates": [
				2.376097,
				48.867249
			]
		},
		"category": "cafe",
		"name": "Le Chat Noir"
	},
	 {
		"loc": {
			"type": "Point",
			"coordinates": [
				2.3758377,
				48.8671899
			]
		},
		"category": "cafe",
		"name": "Marquise Café"
	},
	 {
		"loc": {
			"type": "Point",
			"coordinates": [
				2.3660388,
				48.8667141
			]
		},
		"category": "bar",
		"name": "Le little",
		"opening_hours": "Mo-Su 17:00-02:00"
	},
	 {
		"loc": {
			"type": "Point",
			"coordinates": [
				2.3673783,
				48.8667966
			]
		},
		"category": "cafe",
		"name": "Bistrot Pop"
	},
	 {
		"loc": {
			"type": "Point",
			"coordinates": [
				2.3700477,
				48.8659451
			]
		},
		"category": "cafe",
		"name": "La Parisienne"
	},
	 {
		"loc": {
			"type": "Point",
			"coordinates": [
				2.3748561,
				48.8653692
			]
		},
		"category": "cafe",
		"name": "Les Anémones"
	},
	 {
		"loc": {
			"type": "Point",
			"coordinates": [
				2.3762361,
				48.8647763
			]
		},
		"category": "cafe",
		"name": "Le New's"
	},
	 {
		"loc": {
			"type": "Point",
			"coordinates": [
				2.377743,
				48.86484
			]
		},
		"category": "cafe",
		"name": "Le Soleil Levant"
	},
	 {
		"loc": {
			"type": "Point",
			"coordinates": [
				2.3853844,
				48.8647413
			]
		},
		"category": "cafe",
		"name": "L'Horloge"
	},
	 {
		"loc": {
			"type": "Point",
			"coordinates": [
				2.3864843,
				48.8641439
			]
		},
		"category": "cafe"
	},
	 {
		"loc": {
			"type": "Point",
			"coordinates": [
				2.384189,
				48.8661736
			]
		},
		"category": "pub",
		"name": "Le Montagnard"
	},
	 {
		"loc": {
			"type": "Point",
			"coordinates": [
				2.3839916,
				48.866326
			]
		},
		"category": "cafe",
		"name": "Le Soleil"
	},
	 {
		"loc": {
			"type": "Point",
			"coordinates": [
				2.3828675,
				48.8666938
			]
		},
		"category": "pub",
		"name": "Le Biarritz"
	},
	 {
		"loc": {
			"type": "Point",
			"coordinates": [
				2.3822535,
				48.8667481
			]
		},
		"category": "pub",
		"name": "Café de Paris"
	},
	 {
		"loc": {
			"type": "Point",
			"coordinates": [
				2.3816919,
				48.8666129
			]
		},
		"category": "cafe",
		"name": "Le Grenier"
	},
	 {
		"loc": {
			"type": "Point",
			"coordinates": [
				2.3800354,
				48.8664
			]
		},
		"adress": {
			"addr:housenumber": "133",
			"addr:street": "Rue Oberkampf"
		},
		"category": "cafe",
		"name": "Gecko Café"
	},
	 {
		"loc": {
			"type": "Point",
			"coordinates": [
				2.3768934,
				48.8656428
			]
		},
		"category": "cafe",
		"name": "Box & Coffee"
	},
	 {
		"loc": {
			"type": "Point",
			"coordinates": [
				2.3771252,
				48.8656937
			]
		},
		"category": "pub",
		"name": "Quartier Général"
	},
	 {
		"loc": {
			"type": "Point",
			"coordinates": [
				2.376902,
				48.8659421
			]
		},
		"category": "pub",
		"name": "Blue Billard"
	},
	 {
		"loc": {
			"type": "Point",
			"coordinates": [
				2.3770649,
				48.8661373
			]
		},
		"category": "pub"
	},
	 {
		"loc": {
			"type": "Point",
			"coordinates": [
				2.3764659,
				48.8668329
			]
		},
		"category": "cafe",
		"name": "Nun's café"
	},
	 {
		"loc": {
			"type": "Point",
			"coordinates": [
				2.3494077,
				48.8442805
			]
		},
		"category": "cafe",
		"name": "La Contrescarpe"
	},
	 {
		"loc": {
			"type": "Point",
			"coordinates": [
				2.2882905,
				48.7326061
			]
		},
		"category": "cafe"
	},
	 {
		"loc": {
			"type": "Point",
			"coordinates": [
				2.3754429,
				48.8676415
			]
		},
		"category": "pub"
	},
	 {
		"loc": {
			"type": "Point",
			"coordinates": [
				2.3802352,
				48.8689352
			]
		},
		"category": "cafe",
		"name": "Le métro"
	},
	 {
		"loc": {
			"type": "Point",
			"coordinates": [
				2.379949,
				48.8687538
			]
		},
		"category": "pub",
		"name": "L'Assassin"
	},
	 {
		"loc": {
			"type": "Point",
			"coordinates": [
				2.3782066,
				48.8680763
			]
		},
		"category": "pub",
		"name": "Onze bar"
	},
	 {
		"loc": {
			"type": "Point",
			"coordinates": [
				2.3879568,
				48.877031
			]
		},
		"category": "pub",
		"name": "L'Escargot"
	},
	 {
		"loc": {
			"type": "Point",
			"coordinates": [
				2.3568922,
				48.8317268
			]
		},
		"category": "cafe",
		"name": "Bomby's Cafe"
	},
	 {
		"loc": {
			"type": "Point",
			"coordinates": [
				2.3564215,
				48.8321515
			]
		},
		"category": "cafe",
		"name": "Le Fumaillon"
	},
	 {
		"loc": {
			"type": "Point",
			"coordinates": [
				2.357341,
				48.8309612
			]
		},
		"category": "cafe",
		"name": "Chez Dudule"
	},
	 {
		"loc": {
			"type": "Point",
			"coordinates": [
				2.3545699,
				48.830613
			]
		},
		"category": "cafe",
		"name": "O'Jules"
	},
	 {
		"loc": {
			"type": "Point",
			"coordinates": [
				2.3806988,
				48.845564
			]
		},
		"adress": {
			"addr:city": "Paris",
			"addr:postcode": "75012",
			"addr:street": "Rue de Charenton"
		},
		"category": "cafe",
		"name": "Le Calumet"
	},
	 {
		"loc": {
			"type": "Point",
			"coordinates": [
				2.3777375,
				48.8486594
			]
		},
		"adress": {
			"addr:postcode": "75012"
		},
		"category": "cafe",
		"name": "La Grille",
		"opening_hours": "Mo-Sa 18:00-22:00"
	},
	 {
		"loc": {
			"type": "Point",
			"coordinates": [
				2.3805151,
				48.8480388
			]
		},
		"adress": {
			"addr:postcode": "75012"
		},
		"category": "cafe",
		"name": "Le Crozatier"
	},
	 {
		"loc": {
			"type": "Point",
			"coordinates": [
				2.3772212,
				48.8489783
			]
		},
		"category": "cafe",
		"name": "Le Penty",
		"opening_hours": "Mo-Sa 07:00-01:00"
	},
	 {
		"loc": {
			"type": "Point",
			"coordinates": [
				2.377381,
				48.8494401
			]
		},
		"category": "pub",
		"name": "Le Baron Rouge"
	},
	 {
		"loc": {
			"type": "Point",
			"coordinates": [
				2.3792329,
				48.8532825
			]
		},
		"category": "cafe"
	},
	 {
		"loc": {
			"type": "Point",
			"coordinates": [
				2.3784137,
				48.8508436
			]
		},
		"category": "cafe",
		"name": "Le Stone"
	},
	 {
		"loc": {
			"type": "Point",
			"coordinates": [
				2.375769,
				48.8511896
			]
		},
		"category": "cafe"
	},
	 {
		"loc": {
			"type": "Point",
			"coordinates": [
				2.3742831,
				48.8497953
			]
		},
		"category": "cafe",
		"name": "Bistrot du coin",
		"opening_hours": "Mo-Sa 07:00-02:00"
	},
	 {
		"loc": {
			"type": "Point",
			"coordinates": [
				2.3743781,
				48.8494366
			]
		},
		"category": "pub",
		"name": "Le bar à mine"
	},
	 {
		"loc": {
			"type": "Point",
			"coordinates": [
				2.3851348,
				48.849738
			]
		},
		"category": "bar",
		"name": "Le virginie"
	},
	 {
		"loc": {
			"type": "Point",
			"coordinates": [
				2.384078,
				48.8500278
			]
		},
		"category": "cafe",
		"name": "La Liberté"
	},
	 {
		"loc": {
			"type": "Point",
			"coordinates": [
				2.3831061,
				48.850115
			]
		},
		"category": "cafe"
	},
	 {
		"loc": {
			"type": "Point",
			"coordinates": [
				2.383932,
				48.850045
			]
		},
		"category": "cafe",
		"name": "Au Métro"
	},
	 {
		"loc": {
			"type": "Point",
			"coordinates": [
				2.3814712,
				48.8502585
			]
		},
		"category": "cafe"
	},
	 {
		"loc": {
			"type": "Point",
			"coordinates": [
				2.3781826,
				48.851673
			]
		},
		"category": "pub"
	},
	 {
		"loc": {
			"type": "Point",
			"coordinates": [
				2.3783332,
				48.851652
			]
		},
		"category": "pub"
	},
	 {
		"loc": {
			"type": "Point",
			"coordinates": [
				2.3794482,
				48.8504188
			]
		},
		"category": "cafe"
	},
	 {
		"loc": {
			"type": "Point",
			"coordinates": [
				2.3816584,
				48.8465865
			]
		},
		"category": "cafe",
		"name": "Le Microsillon",
		"opening_hours": "Mo-Sa 10:00-02:00"
	},
	 {
		"loc": {
			"type": "Point",
			"coordinates": [
				2.3820511,
				48.8466308
			]
		},
		"category": "cafe",
		"name": "Le Bistrologue",
		"opening_hours": "Mo-Sa 08:00-02:00"
	},
	 {
		"loc": {
			"type": "Point",
			"coordinates": [
				2.3870859,
				48.8471871
			]
		},
		"adress": {
			"addr:city": "Paris",
			"addr:housenumber": "118",
			"addr:postcode": "75012",
			"addr:street": "Boulevard Diderot"
		},
		"category": "cafe",
		"name": "Le Globe Diderot",
		"opening_hours": "Mo-Fr 00:00-01:30,07:00-24:00;Sa-Su 00:00-01:30,09:00-24:00"
	},
	 {
		"loc": {
			"type": "Point",
			"coordinates": [
				2.3846148,
				48.8505497
			]
		},
		"category": "cafe",
		"name": "En attendant l'or"
	},
	 {
		"loc": {
			"type": "Point",
			"coordinates": [
				2.3842151,
				48.8505497
			]
		},
		"category": "cafe",
		"name": "Baroudeur"
	},
	 {
		"loc": {
			"type": "Point",
			"coordinates": [
				2.3620515,
				48.8653627
			]
		},
		"category": "cafe",
		"name": "Les Caves du Petit Thouars"
	},
	 {
		"loc": {
			"type": "Point",
			"coordinates": [
				2.3627574,
				48.8650045
			]
		},
		"category": "cafe",
		"name": "Café Crème"
	},
	 {
		"loc": {
			"type": "Point",
			"coordinates": [
				2.3625625,
				48.8651033
			]
		},
		"category": "cafe",
		"name": "Le Blanc Cassis"
	},
	 {
		"loc": {
			"type": "Point",
			"coordinates": [
				2.378427,
				48.8462285
			]
		},
		"category": "cafe",
		"name": "Rev'Bar"
	},
	 {
		"loc": {
			"type": "Point",
			"coordinates": [
				2.389517,
				48.8492104
			]
		},
		"category": "bar",
		"name": "Patrick's Le Ballon Vert"
	},
	 {
		"loc": {
			"type": "Point",
			"coordinates": [
				2.3928249,
				48.8478628
			]
		},
		"category": "cafe",
		"name": "La Mère Pouchet",
		"opening_hours": "Mo 00:00-01:00,07:00-24:00;Tu-Su 00:00-02:00,07:00-24:00"
	},
	 {
		"loc": {
			"type": "Point",
			"coordinates": [
				2.3615547,
				48.8330139
			]
		},
		"category": "cafe",
		"name": "La Halte des Taxis"
	},
	 {
		"loc": {
			"type": "Point",
			"coordinates": [
				2.3509011,
				48.8644935
			]
		},
		"category": "pub",
		"name": "Les Cariatides"
	},
	 {
		"loc": {
			"type": "Point",
			"coordinates": [
				2.3441258,
				48.8617033
			]
		},
		"category": "cafe",
		"name": "Café Indiana"
	},
	 {
		"loc": {
			"type": "Point",
			"coordinates": [
				2.3042851,
				48.8239093
			]
		},
		"category": "pub",
		"name": "Le Timbre Poste"
	},
	 {
		"loc": {
			"type": "Point",
			"coordinates": [
				2.1872099,
				48.8448137
			]
		},
		"adress": {
			"addr:city": "Garches",
			"addr:housenumber": "4",
			"addr:street": "Rue Athime Rué"
		},
		"category": "pub",
		"name": "Les Arcades"
	},
	 {
		"loc": {
			"type": "Point",
			"coordinates": [
				2.1874639,
				48.8445334
			]
		},
		"category": "pub"
	},
	 {
		"loc": {
			"type": "Point",
			"coordinates": [
				2.0335366,
				49.6267093
			]
		},
		"category": "pub",
		"name": "Le Baroudeur"
	},
	 {
		"loc": {
			"type": "Point",
			"coordinates": [
				2.2270778,
				48.8692038
			]
		},
		"category": "pub",
		"name": "Le Pub"
	},
	 {
		"loc": {
			"type": "Point",
			"coordinates": [
				2.3714311,
				48.8683391
			]
		},
		"category": "bar",
		"name": "La Caravane",
		"opening_hours": "Mo-Su 11:00-2:00"
	},
	 {
		"loc": {
			"type": "Point",
			"coordinates": [
				2.3651243,
				48.8722393
			]
		},
		"category": "pub",
		"name": "Le Jemmapes"
	},
	 {
		"loc": {
			"type": "Point",
			"coordinates": [
				2.3660938,
				48.8683233
			],
			"geometry": [
				[
					2.3660128,
					48.8682962
				],
				[
					2.3660972,
					48.8681678
				],
				[
					2.3660945,
					48.8681674
				],
				[
					2.3662457,
					48.8679287
				],
				[
					2.3663194,
					48.8678503
				],
				[
					2.3663535,
					48.8678145
				],
				[
					2.3663641,
					48.8678027
				],
				[
					2.3663909,
					48.8677741
				],
				[
					2.3664126,
					48.867751
				],
				[
					2.3664205,
					48.8677425
				],
				[
					2.3664557,
					48.8677043
				],
				[
					2.366514,
					48.8676432
				],
				[
					2.366603,
					48.867548
				],
				[
					2.3668934,
					48.8676208
				],
				[
					2.3663583,
					48.8684116
				],
				[
					2.3662832,
					48.8683865
				],
				[
					2.3660938,
					48.8683233
				],
				[
					2.3660938,
					48.8683233
				],
				[
					2.3660128,
					48.8682962
				]
			]
		},
		"adress": {
			"addr:housenumber": "18",
			"addr:street": "Rue du Faubourg du Temple"
		},
		"category": "bar",
		"name": "La favela Chic",
		"opening_hours": "Tu-We 19:30-2:00;Th 19:30-3:00;Fr-Sa 19:30-4:00"
	},
	 {
		"loc": {
			"type": "Point",
			"coordinates": [
				2.9501774,
				48.3843746
			]
		},
		"category": "cafe"
	},
	 {
		"loc": {
			"type": "Point",
			"coordinates": [
				0.6835347,
				47.4991251
			]
		},
		"category": "cafe",
		"name": "Cerellis"
	},
	 {
		"loc": {
			"type": "Point",
			"coordinates": [
				2.9564809,
				48.3848976
			]
		},
		"category": "bar",
		"name": "Bar de l'Hôtel de Ville"
	},
	 {
		"loc": {
			"type": "Point",
			"coordinates": [
				2.9570883,
				48.3860291
			]
		},
		"category": "cafe",
		"name": "Seine et Marne"
	},
	 {
		"loc": {
			"type": "Point",
			"coordinates": [
				2.9541958,
				48.3863027
			]
		},
		"category": "cafe",
		"name": "Le Marigny"
	},
	 {
		"loc": {
			"type": "Point",
			"coordinates": [
				2.9563587,
				48.3880754
			]
		},
		"category": "cafe"
	},
	 {
		"loc": {
			"type": "Point",
			"coordinates": [
				2.9552687,
				48.3837148
			]
		},
		"category": "cafe",
		"name": "421"
	},
	 {
		"loc": {
			"type": "Point",
			"coordinates": [
				2.9533718,
				48.3850202
			]
		},
		"category": "cafe",
		"name": "La Faïencerie"
	},
	 {
		"loc": {
			"type": "Point",
			"coordinates": [
				2.9553373,
				48.3873629
			]
		},
		"category": "pub",
		"name": "BeBop"
	},
	 {
		"loc": {
			"type": "Point",
			"coordinates": [
				2.9556549,
				48.387095
			]
		},
		"category": "bar"
	},
	 {
		"loc": {
			"type": "Point",
			"coordinates": [
				2.9575947,
				48.3866618
			]
		},
		"category": "bar"
	},
	 {
		"loc": {
			"type": "Point",
			"coordinates": [
				2.9579895,
				48.386981
			]
		},
		"category": "bar"
	},
	 {
		"loc": {
			"type": "Point",
			"coordinates": [
				4.8458547,
				46.7564711
			]
		},
		"category": "bar"
	},
	 {
		"loc": {
			"type": "Point",
			"coordinates": [
				2.037477,
				48.947919
			]
		},
		"category": "cafe"
	},
	 {
		"loc": {
			"type": "Point",
			"coordinates": [
				2.0374684,
				48.9479246
			]
		},
		"category": "pub"
	},
	 {
		"loc": {
			"type": "Point",
			"coordinates": [
				4.8732318,
				46.7131993
			]
		},
		"category": "bar"
	},
	 {
		"loc": {
			"type": "Point",
			"coordinates": [
				2.9578269,
				48.3857199
			]
		},
		"category": "pub"
	},
	 {
		"loc": {
			"type": "Point",
			"coordinates": [
				1.1021914,
				49.443764
			]
		},
		"category": "bar",
		"name": "L orbe"
	},
	 {
		"loc": {
			"type": "Point",
			"coordinates": [
				2.3834309,
				48.8758235
			]
		},
		"category": "cafe",
		"name": "Jolie Môme"
	},
	 {
		"loc": {
			"type": "Point",
			"coordinates": [
				2.3823741,
				48.8753656
			]
		},
		"category": "pub",
		"name": "Les Buttes Chaumont"
	},
	 {
		"loc": {
			"type": "Point",
			"coordinates": [
				2.3578049,
				48.8783181
			]
		},
		"category": "bar",
		"name": "Le Delyss"
	},
	 {
		"loc": {
			"type": "Point",
			"coordinates": [
				2.38588,
				48.8716304
			]
		},
		"category": "cafe",
		"name": "O'Paris"
	},
	 {
		"loc": {
			"type": "Point",
			"coordinates": [
				2.2847393,
				48.8699373
			]
		},
		"category": "cafe",
		"name": "Scossa"
	},
	 {
		"loc": {
			"type": "Point",
			"coordinates": [
				2.2836966,
				48.8711351
			]
		},
		"category": "pub",
		"name": "The Honest Lawyer"
	},
	 {
		"loc": {
			"type": "Point",
			"coordinates": [
				2.3424422,
				48.8474669
			]
		},
		"category": "cafe",
		"name": "Le Duc"
	},
	 {
		"loc": {
			"type": "Point",
			"coordinates": [
				0.6130825,
				47.3405712
			]
		},
		"category": "bar"
	},
	 {
		"loc": {
			"type": "Point",
			"coordinates": [
				0.6138207,
				47.3406177
			]
		},
		"category": "bar"
	},
	 {
		"loc": {
			"type": "Point",
			"coordinates": [
				2.3157284,
				48.8778514
			]
		},
		"category": "pub",
		"name": "Brady's Irish Pub"
	},
	 {
		"loc": {
			"type": "Point",
			"coordinates": [
				2.4133556,
				48.8215566
			]
		},
		"category": "cafe",
		"name": "Tabac des Écoles"
	},
	 {
		"loc": {
			"type": "Point",
			"coordinates": [
				2.4403122,
				48.8446159
			],
			"geometry": [
				[
					2.4403832,
					48.8446836
				],
				[
					2.4403834,
					48.8446851
				],
				[
					2.4403952,
					48.8446841
				],
				[
					2.4404138,
					48.8446824
				],
				[
					2.4404379,
					48.8447931
				],
				[
					2.4403871,
					48.8447974
				],
				[
					2.4403961,
					48.8448109
				],
				[
					2.4404046,
					48.8448487
				],
				[
					2.4404711,
					48.8448436
				],
				[
					2.440479,
					48.844884
				],
				[
					2.4405167,
					48.8448805
				],
				[
					2.4405212,
					48.8449003
				],
				[
					2.4404081,
					48.8449102
				],
				[
					2.4403044,
					48.8449192
				],
				[
					2.4402603,
					48.8447
				],
				[
					2.4402437,
					48.8446202
				],
				[
					2.4403122,
					48.8446159
				],
				[
					2.4403122,
					48.8446159
				],
				[
					2.4403578,
					48.8446097
				],
				[
					2.440374,
					48.8446844
				],
				[
					2.4403832,
					48.8446836
				]
			]
		},
		"category": "pub",
		"name": "Tête à l'envers"
	},
	 {
		"loc": {
			"type": "Point",
			"coordinates": [
				2.4400598,
				48.8446352
			]
		},
		"adress": {
			"addr:city": "Vincennes",
			"addr:housenumber": "3",
			"addr:postcode": "94300",
			"addr:street": "Avenue de Nogent"
		},
		"category": "cafe",
		"name": "Les Officiers"
	},
	 {
		"loc": {
			"type": "Point",
			"coordinates": [
				2.9611547,
				48.3882321
			]
		},
		"category": "bar"
	},
	 {
		"loc": {
			"type": "Point",
			"coordinates": [
				0.6724894,
				47.3927952
			]
		},
		"category": "bar",
		"name": "Le Courteline"
	},
	 {
		"loc": {
			"type": "Point",
			"coordinates": [
				1.8706313,
				47.8798855
			]
		},
		"category": "cafe"
	},
	 {
		"loc": {
			"type": "Point",
			"coordinates": [
				0.6821291,
				47.3947618
			],
			"geometry": [
				[
					0.6820746,
					47.3947617
				],
				[
					0.6820907,
					47.3949168
				],
				[
					0.6821497,
					47.3949146
				],
				[
					0.6821466,
					47.3948723
				],
				[
					0.6821345,
					47.3948725
				],
				[
					0.6821341,
					47.3948501
				],
				[
					0.682187,
					47.3948493
				],
				[
					0.6821872,
					47.3948781
				],
				[
					0.6822467,
					47.3948786
				],
				[
					0.6822444,
					47.3948109
				],
				[
					0.6822934,
					47.3948093
				],
				[
					0.6822975,
					47.3948917
				],
				[
					0.682357,
					47.394891
				],
				[
					0.6823602,
					47.3947699
				],
				[
					0.6823544,
					47.3947623
				],
				[
					0.6823005,
					47.3947622
				],
				[
					0.6822179,
					47.394762
				],
				[
					0.6821291,
					47.3947618
				],
				[
					0.6821291,
					47.3947618
				],
				[
					0.6820746,
					47.3947617
				]
			]
		},
		"adress": {
			"addr:housenumber": "91"
		},
		"category": "pub",
		"name": "La Belle Époque"
	},
	 {
		"loc": {
			"type": "Point",
			"coordinates": [
				0.6824309,
				47.3944752
			],
			"geometry": [
				[
					0.6823375,
					47.3943981
				],
				[
					0.6823131,
					47.3944573
				],
				[
					0.682301,
					47.3944842
				],
				[
					0.682267,
					47.3945002
				],
				[
					0.6822615,
					47.3945299
				],
				[
					0.6822676,
					47.3945301
				],
				[
					0.6822593,
					47.3946103
				],
				[
					0.6823041,
					47.3946184
				],
				[
					0.6823448,
					47.3946258
				],
				[
					0.6823732,
					47.3945489
				],
				[
					0.6824513,
					47.3944921
				],
				[
					0.6824309,
					47.3944752
				],
				[
					0.6824309,
					47.3944752
				],
				[
					0.6823375,
					47.3943981
				]
			]
		},
		"adress": {
			"addr:city": "Tours",
			"addr:housenumber": "7",
			"addr:postcode": "37000",
			"addr:street": "Rue des Orfèvres"
		},
		"category": "bar",
		"name": "Le Saint-James"
	},
	 {
		"loc": {
			"type": "Point",
			"coordinates": [
				0.6824066,
				47.3946369
			],
			"geometry": [
				[
					0.6825319,
					47.3945604
				],
				[
					0.6824924,
					47.3945269
				],
				[
					0.6824513,
					47.3944921
				],
				[
					0.6823732,
					47.3945489
				],
				[
					0.6823448,
					47.3946258
				],
				[
					0.6824066,
					47.3946369
				],
				[
					0.6824066,
					47.3946369
				],
				[
					0.6824436,
					47.3946436
				],
				[
					0.6825319,
					47.3945604
				]
			]
		},
		"adress": {
			"addr:housenumber": "108"
		},
		"category": "bar",
		"name": "Le Puit sait tout"
	},
	 {
		"loc": {
			"type": "Point",
			"coordinates": [
				0.6813393,
				47.3947528
			],
			"geometry": [
				[
					0.6813507,
					47.3947247
				],
				[
					0.6813393,
					47.3947528
				],
				[
					0.6813393,
					47.3947528
				],
				[
					0.6813232,
					47.3947921
				],
				[
					0.6811524,
					47.3947608
				],
				[
					0.6811782,
					47.3946902
				],
				[
					0.6812005,
					47.3946945
				],
				[
					0.6811897,
					47.3947188
				],
				[
					0.6812208,
					47.3947241
				],
				[
					0.6812334,
					47.394701
				],
				[
					0.6813254,
					47.3947196
				],
				[
					0.6813507,
					47.3947247
				]
			]
		},
		"adress": {
			"addr:city": "Tours",
			"addr:housenumber": "33",
			"addr:postcode": "37000",
			"addr:street": "Rue Briçonnet"
		},
		"category": "bar",
		"name": "Le Café Chaud"
	},
	 {
		"loc": {
			"type": "Point",
			"coordinates": [
				2.0706646,
				49.4192731
			]
		},
		"category": "bar"
	},
	 {
		"loc": {
			"type": "Point",
			"coordinates": [
				3.6318676,
				47.1080882
			],
			"geometry": [
				[
					3.621027,
					47.1618747
				],
				[
					3.6203505,
					47.1602741
				],
				[
					3.6196122,
					47.1585156
				],
				[
					3.61909,
					47.15716
				],
				[
					3.6184359,
					47.1556371
				],
				[
					3.6183126,
					47.1553341
				],
				[
					3.6182773,
					47.1550796
				],
				[
					3.6183947,
					47.1540382
				],
				[
					3.6185858,
					47.1524629
				],
				[
					3.6187658,
					47.1508806
				],
				[
					3.619,
					47.14928
				],
				[
					3.6190548,
					47.1489797
				],
				[
					3.6191726,
					47.1487017
				],
				[
					3.6193281,
					47.1484849
				],
				[
					3.6200034,
					47.1478614
				],
				[
					3.6219743,
					47.1461186
				],
				[
					3.6226452,
					47.1455396
				],
				[
					3.6229742,
					47.1450585
				],
				[
					3.6230867,
					47.1448304
				],
				[
					3.6231574,
					47.1446523
				],
				[
					3.6231836,
					47.144474
				],
				[
					3.6231917,
					47.1442174
				],
				[
					3.6231622,
					47.1439615
				],
				[
					3.6231059,
					47.1437026
				],
				[
					3.6229993,
					47.1434091
				],
				[
					3.6228962,
					47.1431298
				],
				[
					3.6226566,
					47.1424256
				],
				[
					3.6221524,
					47.1410385
				],
				[
					3.621632,
					47.1394907
				],
				[
					3.6216089,
					47.1393877
				],
				[
					3.6215986,
					47.1392709
				],
				[
					3.6216039,
					47.1390483
				],
				[
					3.6217558,
					47.1386489
				],
				[
					3.622099,
					47.1379266
				],
				[
					3.6228195,
					47.1364383
				],
				[
					3.6235729,
					47.1348898
				],
				[
					3.62437,
					47.13329
				],
				[
					3.6244908,
					47.1330351
				],
				[
					3.6245946,
					47.1327785
				],
				[
					3.6246561,
					47.1325088
				],
				[
					3.624697,
					47.1322237
				],
				[
					3.6247242,
					47.1316932
				],
				[
					3.6247848,
					47.130136
				],
				[
					3.6248304,
					47.1286852
				],
				[
					3.6248418,
					47.1285242
				],
				[
					3.6248702,
					47.1283844
				],
				[
					3.6251544,
					47.1278409
				],
				[
					3.625149,
					47.1278284
				],
				[
					3.6249103,
					47.1272708
				],
				[
					3.62492,
					47.12698
				],
				[
					3.62497,
					47.12536
				],
				[
					3.625,
					47.12376
				],
				[
					3.62507,
					47.12216
				],
				[
					3.62513,
					47.1206
				],
				[
					3.6251995,
					47.1189551
				],
				[
					3.62525,
					47.11738
				],
				[
					3.6253251,
					47.1169621
				],
				[
					3.6254019,
					47.1167658
				],
				[
					3.6255231,
					47.1165934
				],
				[
					3.626,
					47.11593
				],
				[
					3.62707,
					47.11449
				],
				[
					3.62812,
					47.11308
				],
				[
					3.6293003,
					47.1115078
				],
				[
					3.6303864,
					47.1100738
				],
				[
					3.630457,
					47.1100379
				],
				[
					3.6318676,
					47.1080882
				],
				[
					3.6318676,
					47.1080882
				],
				[
					3.631916,
					47.1080076
				],
				[
					3.6319931,
					47.1079047
				],
				[
					3.6324372,
					47.1073117
				],
				[
					3.63352,
					47.1059
				],
				[
					3.63463,
					47.10447
				],
				[
					3.63567,
					47.10305
				],
				[
					3.635848,
					47.1026186
				],
				[
					3.6359137,
					47.1021606
				],
				[
					3.6359398,
					47.1018268
				],
				[
					3.6358017,
					47.1014331
				],
				[
					3.63509,
					47.09988
				],
				[
					3.6344845,
					47.0983931
				],
				[
					3.6343776,
					47.0978679
				],
				[
					3.6345128,
					47.0974114
				],
				[
					3.6346925,
					47.0970456
				],
				[
					3.6349921,
					47.0967582
				],
				[
					3.6355057,
					47.0961468
				],
				[
					3.6357129,
					47.0957212
				],
				[
					3.6357991,
					47.0953581
				],
				[
					3.6357787,
					47.0950023
				],
				[
					3.6356432,
					47.0944929
				],
				[
					3.6354353,
					47.0939793
				],
				[
					3.635044,
					47.0929613
				],
				[
					3.6349407,
					47.0925732
				],
				[
					3.635041,
					47.092142
				],
				[
					3.6352133,
					47.091862
				],
				[
					3.6361324,
					47.0909712
				],
				[
					3.6371198,
					47.0900864
				],
				[
					3.6375411,
					47.0895907
				],
				[
					3.637745,
					47.0891963
				],
				[
					3.6378178,
					47.0889613
				]
			]
		},
		"category": "cafe"
	},
	 {
		"loc": {
			"type": "Point",
			"coordinates": [
				0.6820231,
				47.3940909
			],
			"geometry": [
				[
					0.6820273,
					47.3940575
				],
				[
					0.6820231,
					47.3940909
				],
				[
					0.6820231,
					47.3940909
				],
				[
					0.6820186,
					47.3941265
				],
				[
					0.6820999,
					47.3941321
				],
				[
					0.6821037,
					47.3940951
				],
				[
					0.6821267,
					47.3940959
				],
				[
					0.6821248,
					47.3941334
				],
				[
					0.6821698,
					47.3941363
				],
				[
					0.6821753,
					47.3940682
				],
				[
					0.6821362,
					47.3940654
				],
				[
					0.6820273,
					47.3940575
				]
			]
		},
		"adress": {
			"addr:city": "Tours",
			"addr:housenumber": "4",
			"addr:postcode": "37000",
			"addr:street": "Rue du Change"
		},
		"category": "bar",
		"name": "Gilles Pillaut"
	},
	 {
		"loc": {
			"type": "Point",
			"coordinates": [
				0.6813399,
				47.3932984
			],
			"geometry": [
				[
					0.6812681,
					47.3932925
				],
				[
					0.6813399,
					47.3932984
				],
				[
					0.6813399,
					47.3932984
				],
				[
					0.6814178,
					47.3933048
				],
				[
					0.6814321,
					47.3932381
				],
				[
					0.6814889,
					47.3932445
				],
				[
					0.6815031,
					47.3930717
				],
				[
					0.6814835,
					47.3930691
				],
				[
					0.6814855,
					47.3930518
				],
				[
					0.6814872,
					47.3930365
				],
				[
					0.6815343,
					47.392944
				],
				[
					0.681435,
					47.3929191
				],
				[
					0.6813233,
					47.3928911
				],
				[
					0.6812866,
					47.3929575
				],
				[
					0.6813182,
					47.3929681
				],
				[
					0.6812897,
					47.3930455
				],
				[
					0.6812805,
					47.3930704
				],
				[
					0.6812926,
					47.3930719
				],
				[
					0.6812852,
					47.3931341
				],
				[
					0.6813,
					47.3931371
				],
				[
					0.6812681,
					47.3932925
				]
			]
		},
		"adress": {
			"addr:city": "Tours",
			"addr:housenumber": "26",
			"addr:postcode": "37000",
			"addr:street": "Rue de Châteauneuf"
		},
		"category": "pub",
		"name": "Doan"
	},
	 {
		"loc": {
			"type": "Point",
			"coordinates": [
				1.8077418,
				48.1585218
			]
		},
		"category": "pub",
		"name": "Le Mexique"
	},
	 {
		"loc": {
			"type": "Point",
			"coordinates": [
				0.6856667,
				47.3950415
			],
			"geometry": [
				[
					0.6856339,
					47.3951245
				],
				[
					0.6857241,
					47.3951436
				],
				[
					0.6858041,
					47.3951605
				],
				[
					0.6858756,
					47.3950055
				],
				[
					0.6858309,
					47.3949966
				],
				[
					0.6858341,
					47.394989
				],
				[
					0.6856974,
					47.3949635
				],
				[
					0.6856667,
					47.3950415
				],
				[
					0.6856667,
					47.3950415
				],
				[
					0.6856398,
					47.3951095
				],
				[
					0.6856339,
					47.3951245
				]
			]
		},
		"adress": {
			"addr:city": "Tours",
			"addr:housenumber": "2",
			"addr:postcode": "37000",
			"addr:street": "Rue des Fusillés"
		},
		"category": "bar",
		"name": "Le Bachata"
	},
	 {
		"loc": {
			"type": "Point",
			"coordinates": [
				2.5525241,
				48.8481751
			]
		},
		"adress": {
			"addr:housenumber": "8",
			"addr:postcode": "93160",
			"addr:street": "avenue Aristide Briand"
		},
		"category": "pub",
		"name": "Le Bureau"
	},
	 {
		"loc": {
			"type": "Point",
			"coordinates": [
				4.8377133,
				46.7796747
			],
			"geometry": [
				[
					4.8373467,
					46.7797743
				],
				[
					4.8373483,
					46.7797735
				],
				[
					4.8374615,
					46.7797244
				],
				[
					4.837497,
					46.779709
				],
				[
					4.8375128,
					46.7797025
				],
				[
					4.8375834,
					46.7796716
				],
				[
					4.8376627,
					46.7796371
				],
				[
					4.8377133,
					46.7796747
				],
				[
					4.8377133,
					46.7796747
				],
				[
					4.8378086,
					46.7797372
				],
				[
					4.8378786,
					46.779783
				],
				[
					4.8379275,
					46.7798387
				],
				[
					4.8378008,
					46.7799214
				],
				[
					4.8377206,
					46.7799731
				],
				[
					4.8376717,
					46.7800055
				],
				[
					4.8376148,
					46.7799709
				],
				[
					4.8376009,
					46.7799621
				],
				[
					4.8376542,
					46.77993
				],
				[
					4.8377896,
					46.7798493
				],
				[
					4.8376914,
					46.7797762
				],
				[
					4.8377122,
					46.7797622
				],
				[
					4.8376341,
					46.7797029
				],
				[
					4.8375189,
					46.7797532
				],
				[
					4.8374266,
					46.7797934
				],
				[
					4.8374578,
					46.7798284
				],
				[
					4.8374797,
					46.7798132
				],
				[
					4.8375573,
					46.7798679
				],
				[
					4.8375076,
					46.7799027
				],
				[
					4.8374974,
					46.7798962
				],
				[
					4.8374954,
					46.7798954
				],
				[
					4.8374013,
					46.7798266
				],
				[
					4.8373978,
					46.7798282
				],
				[
					4.8373849,
					46.7798144
				],
				[
					4.8373467,
					46.7797743
				]
			]
		},
		"category": "cafe",
		"name": "Le Bellevue"
	},
	 {
		"loc": {
			"type": "Point",
			"coordinates": [
				4.8381415,
				46.7799854
			],
			"geometry": [
				[
					4.8380036,
					46.7800005
				],
				[
					4.8380858,
					46.7799472
				],
				[
					4.8381094,
					46.7799634
				],
				[
					4.8381415,
					46.7799854
				],
				[
					4.8381415,
					46.7799854
				],
				[
					4.8381837,
					46.7800133
				],
				[
					4.8380947,
					46.7800671
				],
				[
					4.8380871,
					46.7800684
				],
				[
					4.8380585,
					46.780086
				],
				[
					4.8379695,
					46.7800226
				],
				[
					4.8380036,
					46.7800005
				]
			]
		},
		"category": "bar",
		"name": "Le Domino"
	},
	 {
		"loc": {
			"type": "Point",
			"coordinates": [
				4.8398819,
				46.7630407
			]
		},
		"category": "cafe"
	},
	 {
		"loc": {
			"type": "Point",
			"coordinates": [
				1.5774763,
				48.5864346
			]
		},
		"category": "bar"
	},
	 {
		"loc": {
			"type": "Point",
			"coordinates": [
				1.577569,
				48.5867677
			]
		},
		"category": "bar"
	},
	 {
		"loc": {
			"type": "Point",
			"coordinates": [
				1.5777834,
				48.5878382
			]
		},
		"category": "bar",
		"name": "Le Narval"
	},
	 {
		"loc": {
			"type": "Point",
			"coordinates": [
				2.0924384,
				48.991504
			]
		},
		"category": "pub",
		"name": "Le Bijou Bar"
	},
	 {
		"loc": {
			"type": "Point",
			"coordinates": [
				2.3520536,
				48.917636
			]
		},
		"category": "bar"
	},
	 {
		"loc": {
			"type": "Point",
			"coordinates": [
				1.1016716,
				47.1060453
			]
		},
		"category": "pub"
	},
	 {
		"loc": {
			"type": "Point",
			"coordinates": [
				1.8277984,
				47.9195625
			]
		},
		"adress": {
			"addr:housenumber": "7",
			"addr:postcode": "45140",
			"addr:street": "Place de la Mairie"
		},
		"category": "bar",
		"name": "Le Relax"
	},
	 {
		"loc": {
			"type": "Point",
			"coordinates": [
				2.7991138,
				48.3783942
			]
		},
		"category": "cafe"
	},
	 {
		"loc": {
			"type": "Point",
			"coordinates": [
				2.3074573,
				48.9721989
			],
			"geometry": [
				[
					2.3071806,
					48.972119
				],
				[
					2.3072266,
					48.972099
				],
				[
					2.3073308,
					48.9720536
				],
				[
					2.3073643,
					48.9720391
				],
				[
					2.3074326,
					48.9720805
				],
				[
					2.3074189,
					48.9720893
				],
				[
					2.3075219,
					48.972152
				],
				[
					2.3074573,
					48.9721989
				],
				[
					2.3074573,
					48.9721989
				],
				[
					2.3073901,
					48.9722478
				],
				[
					2.3072414,
					48.9721568
				],
				[
					2.3071806,
					48.972119
				]
			]
		},
		"adress": {
			"addr:housenumber": "9",
			"addr:street": "Rue de l'Arrivée"
		},
		"category": "pub",
		"name": "Au Bureau"
	},
	 {
		"loc": {
			"type": "Point",
			"coordinates": [
				2.3208036,
				48.8851298
			]
		},
		"category": "cafe",
		"name": "Le Marigny"
	},
	 {
		"loc": {
			"type": "Point",
			"coordinates": [
				2.3215074,
				48.8857055
			]
		},
		"adress": {
			"addr:city": "Paris",
			"addr:housenumber": "58",
			"addr:postcode": "75017",
			"addr:street": "Rue la Condamine"
		},
		"category": "cafe",
		"name": "Le Petit Village",
		"opening_hours": "Mo-Sa 8:00-2:00"
	},
	 {
		"loc": {
			"type": "Point",
			"coordinates": [
				2.4713884,
				48.8076069
			]
		},
		"category": "pub",
		"name": "Le Riaume"
	},
	 {
		"loc": {
			"type": "Point",
			"coordinates": [
				2.2307588,
				49.8432621
			]
		},
		"category": "cafe",
		"name": "Le Provençal"
	},
	 {
		"loc": {
			"type": "Point",
			"coordinates": [
				1.6790134,
				49.2065781
			]
		},
		"category": "cafe",
		"name": "Cafe du Commerce"
	},
	 {
		"loc": {
			"type": "Point",
			"coordinates": [
				4.7112695,
				49.8776628
			]
		},
		"category": "bar"
	},
	 {
		"loc": {
			"type": "Point",
			"coordinates": [
				2.0488088,
				47.2300909
			]
		},
		"category": "pub",
		"name": "La Renaissance"
	},
	 {
		"loc": {
			"type": "Point",
			"coordinates": [
				2.0495591,
				47.2302169
			]
		},
		"category": "pub",
		"name": "L'Acacia"
	},
	 {
		"loc": {
			"type": "Point",
			"coordinates": [
				2.471297,
				48.809525
			]
		},
		"category": "cafe",
		"name": "La brasserie du pont"
	},
	 {
		"loc": {
			"type": "Point",
			"coordinates": [
				2.3989988,
				48.8361823
			]
		},
		"category": "cafe",
		"name": "Les Voisins"
	},
	 {
		"loc": {
			"type": "Point",
			"coordinates": [
				2.3938241,
				48.839149
			]
		},
		"category": "cafe",
		"name": "Felix café"
	},
	 {
		"loc": {
			"type": "Point",
			"coordinates": [
				2.3049498,
				48.834658
			]
		},
		"category": "pub",
		"name": "Le Café de la Poste"
	},
	 {
		"loc": {
			"type": "Point",
			"coordinates": [
				0.7163887,
				49.8698228
			]
		},
		"category": "bar"
	},
	 {
		"loc": {
			"type": "Point",
			"coordinates": [
				2.4745344,
				48.8359975
			]
		},
		"category": "cafe"
	},
	 {
		"loc": {
			"type": "Point",
			"coordinates": [
				2.4727492,
				48.835823
			]
		},
		"category": "cafe"
	},
	 {
		"loc": {
			"type": "Point",
			"coordinates": [
				2.4713464,
				48.8472582
			]
		},
		"category": "pub",
		"name": "Le Village"
	},
	 {
		"loc": {
			"type": "Point",
			"coordinates": [
				2.5539476,
				48.4756562
			]
		},
		"category": "cafe",
		"name": "Le Bon Coin"
	},
	 {
		"loc": {
			"type": "Point",
			"coordinates": [
				2.385703,
				48.8352503
			]
		},
		"category": "cafe",
		"name": "Edelweiss"
	},
	 {
		"loc": {
			"type": "Point",
			"coordinates": [
				2.3799031,
				48.8398654
			]
		},
		"category": "cafe",
		"name": "Bercy café"
	},
	 {
		"loc": {
			"type": "Point",
			"coordinates": [
				2.3804879,
				48.8401087
			]
		},
		"category": "cafe",
		"name": "Café Chambertin"
	},
	 {
		"loc": {
			"type": "Point",
			"coordinates": [
				2.3806604,
				48.8393185
			]
		},
		"category": "pub"
	},
	 {
		"loc": {
			"type": "Point",
			"coordinates": [
				2.0415248,
				48.9286742
			]
		},
		"category": "bar",
		"name": "L'instant"
	},
	 {
		"loc": {
			"type": "Point",
			"coordinates": [
				2.0523632,
				48.9337223
			]
		},
		"category": "cafe",
		"name": "Beira Minho"
	},
	 {
		"loc": {
			"type": "Point",
			"coordinates": [
				0.5828466,
				48.1732494
			]
		},
		"category": "cafe"
	},
	 {
		"loc": {
			"type": "Point",
			"coordinates": [
				0.6550143,
				48.1869128
			]
		},
		"category": "cafe",
		"name": "Café du Commerce"
	},
	 {
		"loc": {
			"type": "Point",
			"coordinates": [
				0.6544735,
				48.1866266
			]
		},
		"category": "cafe",
		"name": "Café des arts"
	},
	 {
		"loc": {
			"type": "Point",
			"coordinates": [
				0.6845746,
				48.1921842
			]
		},
		"category": "bar"
	},
	 {
		"loc": {
			"type": "Point",
			"coordinates": [
				0.6784914,
				48.2271436
			]
		},
		"category": "cafe"
	},
	 {
		"loc": {
			"type": "Point",
			"coordinates": [
				0.5920853,
				48.2214075
			]
		},
		"category": "bar"
	},
	 {
		"loc": {
			"type": "Point",
			"coordinates": [
				2.2970236,
				48.837271
			]
		},
		"category": "cafe",
		"name": "La Source"
	},
	 {
		"loc": {
			"type": "Point",
			"coordinates": [
				2.297117,
				48.8372438
			]
		},
		"category": "cafe",
		"name": "Moka"
	},
	 {
		"loc": {
			"type": "Point",
			"coordinates": [
				2.0286226,
				49.0106261
			]
		},
		"adress": {
			"addr:housenumber": "2",
			"addr:street": "Rue Maurice Ravel"
		},
		"category": "pub",
		"name": "Les Merisiers"
	},
	 {
		"loc": {
			"type": "Point",
			"coordinates": [
				2.0488335,
				49.1270049
			]
		},
		"category": "nightclub",
		"name": "Le Sete"
	},
	 {
		"loc": {
			"type": "Point",
			"coordinates": [
				2.4341285,
				48.882439
			]
		},
		"category": "cafe",
		"name": "Café du Marché"
	},
	 {
		"loc": {
			"type": "Point",
			"coordinates": [
				2.4337459,
				48.8826237
			]
		},
		"category": "cafe",
		"name": "PMU"
	},
	 {
		"loc": {
			"type": "Point",
			"coordinates": [
				2.4334412,
				48.8829732
			]
		},
		"category": "cafe",
		"name": "La Consigne"
	},
	 {
		"loc": {
			"type": "Point",
			"coordinates": [
				2.2424693,
				48.8190789
			],
			"geometry": [
				[
					2.242441,
					48.819059
				],
				[
					2.2424693,
					48.8190789
				],
				[
					2.2424693,
					48.8190789
				],
				[
					2.242505,
					48.819104
				],
				[
					2.24251,
					48.819146
				],
				[
					2.242493,
					48.819145
				],
				[
					2.242362,
					48.819138
				],
				[
					2.242365,
					48.819114
				],
				[
					2.242372,
					48.819049
				],
				[
					2.242441,
					48.819059
				]
			]
		},
		"category": "cafe",
		"name": "Le Gagnant"
	},
	 {
		"loc": {
			"type": "Point",
			"coordinates": [
				2.3970587,
				48.847497
			]
		},
		"category": "pub",
		"name": "Irish Corner",
		"opening_hours": "Mo-Su 00:00-02:00,07:00-24:00"
	},
	 {
		"loc": {
			"type": "Point",
			"coordinates": [
				2.4018663,
				48.8510126
			]
		},
		"category": "bar",
		"name": "Les pères populaires"
	},
	 {
		"loc": {
			"type": "Point",
			"coordinates": [
				2.401582,
				48.8517859
			]
		},
		"category": "bar",
		"name": "Le Jean Bart"
	},
	 {
		"loc": {
			"type": "Point",
			"coordinates": [
				2.5855828,
				48.94256
			]
		},
		"category": "pub"
	},
	 {
		"loc": {
			"type": "Point",
			"coordinates": [
				2.4937917,
				48.6300422
			]
		},
		"category": "cafe"
	},
	 {
		"loc": {
			"type": "Point",
			"coordinates": [
				2.3151731,
				48.8315258
			]
		},
		"category": "cafe",
		"name": "Café Plaisance"
	},
	 {
		"loc": {
			"type": "Point",
			"coordinates": [
				2.3161042,
				48.832937
			]
		},
		"category": "cafe",
		"name": "Le Bouquet"
	},
	 {
		"loc": {
			"type": "Point",
			"coordinates": [
				2.3171214,
				48.8333903
			]
		},
		"category": "cafe",
		"name": "Le 7ème Art"
	},
	 {
		"loc": {
			"type": "Point",
			"coordinates": [
				2.3181857,
				48.8338366
			]
		},
		"category": "bar",
		"name": "Losserand Café"
	},
	 {
		"loc": {
			"type": "Point",
			"coordinates": [
				3.2232772,
				49.6118193
			]
		},
		"category": "pub",
		"name": "Bar-Tabac \"Le LONGCHAMP\""
	},
	 {
		"loc": {
			"type": "Point",
			"coordinates": [
				3.2183198,
				49.6154928
			]
		},
		"category": "bar",
		"name": "Bar de l'Hôtel de Ville"
	},
	 {
		"loc": {
			"type": "Point",
			"coordinates": [
				3.2193287,
				49.615166
			]
		},
		"category": "pub",
		"name": "Bar-Tabac \"La Rotonde\""
	},
	 {
		"loc": {
			"type": "Point",
			"coordinates": [
				3.2276342,
				49.6168358
			]
		},
		"category": "pub",
		"name": "Le Royal Club :Bar-Tabac-Loto-Presse"
	},
	 {
		"loc": {
			"type": "Point",
			"coordinates": [
				3.2135699,
				49.6149814
			]
		},
		"category": "pub",
		"name": "Le Picard Bar-Tabac"
	},
	 {
		"loc": {
			"type": "Point",
			"coordinates": [
				3.2124836,
				49.6181895
			]
		},
		"category": "pub",
		"name": "Le Chaud Nid Bar-Tabac"
	},
	 {
		"loc": {
			"type": "Point",
			"coordinates": [
				2.1571674,
				48.9004918
			]
		},
		"category": "bar",
		"name": "Le Raymus' Bar"
	},
	 {
		"loc": {
			"type": "Point",
			"coordinates": [
				2.1567481,
				48.9029653
			]
		},
		"category": "bar"
	},
	 {
		"loc": {
			"type": "Point",
			"coordinates": [
				2.3464815,
				48.8867306
			]
		},
		"category": "bar",
		"name": "Blue Note"
	},
	 {
		"loc": {
			"type": "Point",
			"coordinates": [
				2.3750738,
				48.8611991
			]
		},
		"category": "cafe",
		"name": "Les Cent Kilos"
	},
	 {
		"loc": {
			"type": "Point",
			"coordinates": [
				0.9383024,
				49.2655397
			]
		},
		"category": "bar"
	},
	 {
		"loc": {
			"type": "Point",
			"coordinates": [
				2.1558602,
				48.901685
			]
		},
		"category": "bar",
		"name": "Le Maupassant"
	},
	 {
		"loc": {
			"type": "Point",
			"coordinates": [
				2.7066064,
				48.4690984
			]
		},
		"category": "pub",
		"name": "S"
	},
	 {
		"loc": {
			"type": "Point",
			"coordinates": [
				0.6895688,
				47.3942972
			],
			"geometry": [
				[
					0.6895224,
					47.3942924
				],
				[
					0.6895688,
					47.3942972
				],
				[
					0.6895688,
					47.3942972
				],
				[
					0.6896142,
					47.3943018
				],
				[
					0.6896295,
					47.3943034
				],
				[
					0.689647,
					47.3942331
				],
				[
					0.6896246,
					47.3942294
				],
				[
					0.6896656,
					47.3941253
				],
				[
					0.6896254,
					47.3941177
				],
				[
					0.6896582,
					47.3940455
				],
				[
					0.6896292,
					47.394039
				],
				[
					0.6896276,
					47.3940434
				],
				[
					0.6895997,
					47.3941072
				],
				[
					0.6895679,
					47.3941843
				],
				[
					0.6895224,
					47.3942924
				]
			]
		},
		"adress": {
			"addr:city": "Tours",
			"addr:housenumber": "49",
			"addr:postcode": "37000",
			"addr:street": "Rue de la Scellerie"
		},
		"category": "cafe",
		"name": "Après la cueillette"
	},
	 {
		"loc": {
			"type": "Point",
			"coordinates": [
				2.3808215,
				48.8465001
			]
		},
		"category": "cafe",
		"name": "Le relais Diderot"
	},
	 {
		"loc": {
			"type": "Point",
			"coordinates": [
				2.380067,
				48.8505704
			]
		},
		"category": "cafe"
	},
	 {
		"loc": {
			"type": "Point",
			"coordinates": [
				2.3780865,
				48.8502082
			]
		},
		"category": "pub",
		"name": "Le Troll",
		"opening_hours": "Mo-Su 17:00-02:00"
	},
	 {
		"loc": {
			"type": "Point",
			"coordinates": [
				1.065782,
				47.7911431
			]
		},
		"category": "cafe"
	},
	 {
		"loc": {
			"type": "Point",
			"coordinates": [
				1.0655418,
				47.7912603
			]
		},
		"category": "bar",
		"name": "Café du midi"
	},
	 {
		"loc": {
			"type": "Point",
			"coordinates": [
				2.8204333,
				49.4149621
			]
		},
		"category": "pub",
		"name": "After hours"
	},
	 {
		"loc": {
			"type": "Point",
			"coordinates": [
				2.2212781,
				48.8522837
			]
		},
		"category": "cafe"
	},
	 {
		"loc": {
			"type": "Point",
			"coordinates": [
				2.2214567,
				48.8521421
			]
		},
		"category": "cafe"
	},
	 {
		"loc": {
			"type": "Point",
			"coordinates": [
				2.7076905,
				48.4680035
			]
		},
		"category": "cafe",
		"name": "Cafe de la Cité"
	},
	 {
		"loc": {
			"type": "Point",
			"coordinates": [
				2.6946528,
				48.4788606
			]
		},
		"category": "pub",
		"name": "Mehari"
	},
	 {
		"loc": {
			"type": "Point",
			"coordinates": [
				2.6914926,
				48.4749841
			]
		},
		"category": "cafe",
		"name": "Café de la gare"
	},
	 {
		"loc": {
			"type": "Point",
			"coordinates": [
				2.3876774,
				48.8745856
			]
		},
		"category": "cafe",
		"name": "La Cagnotte"
	},
	 {
		"loc": {
			"type": "Point",
			"coordinates": [
				2.3863253,
				48.8745188
			]
		},
		"category": "cafe",
		"name": "Le Bariolé"
	},
	 {
		"loc": {
			"type": "Point",
			"coordinates": [
				2.486372,
				47.3446832
			]
		},
		"category": "pub"
	},
	 {
		"loc": {
			"type": "Point",
			"coordinates": [
				2.4005135,
				48.8345868
			]
		},
		"category": "bar",
		"name": "Le bistrot de Julie"
	},
	 {
		"loc": {
			"type": "Point",
			"coordinates": [
				2.4007736,
				48.834455
			]
		},
		"category": "bar",
		"name": "Au diplomate"
	},
	 {
		"loc": {
			"type": "Point",
			"coordinates": [
				2.267515,
				48.9192705
			]
		},
		"category": "cafe",
		"name": "Le Maryland"
	},
	 {
		"loc": {
			"type": "Point",
			"coordinates": [
				2.8249552,
				49.4183033
			]
		},
		"category": "pub",
		"name": "Le Songeons"
	},
	 {
		"loc": {
			"type": "Point",
			"coordinates": [
				2.2460726,
				47.301794
			]
		},
		"category": "cafe",
		"name": "Buvette"
	},
	 {
		"loc": {
			"type": "Point",
			"coordinates": [
				0.8558466,
				48.2317593
			]
		},
		"category": "cafe",
		"name": "Le Saint-Pierre"
	},
	 {
		"loc": {
			"type": "Point",
			"coordinates": [
				0.8087748,
				47.8795365
			]
		},
		"category": "pub",
		"name": "Le Croque-Lune"
	},
	 {
		"loc": {
			"type": "Point",
			"coordinates": [
				2.3751897,
				48.8492375
			]
		},
		"category": "cafe",
		"name": "Rotana café"
	},
	 {
		"loc": {
			"type": "Point",
			"coordinates": [
				2.375025,
				48.8493959
			]
		},
		"category": "bar",
		"name": "Chez Habibi",
		"opening_hours": "Mo-Su 17:00-02:00"
	},
	 {
		"loc": {
			"type": "Point",
			"coordinates": [
				2.3723704,
				48.8464256
			]
		},
		"category": "bar",
		"name": "Flute Gana"
	},
	 {
		"loc": {
			"type": "Point",
			"coordinates": [
				2.3736299,
				48.8460157
			]
		},
		"category": "cafe",
		"name": "Les deux Savoies",
		"opening_hours": "Mo-Su 05:45-02:00"
	},
	 {
		"loc": {
			"type": "Point",
			"coordinates": [
				2.0802325,
				47.2306164
			]
		},
		"category": "pub",
		"name": "Le Saint-Hubert"
	},
	 {
		"loc": {
			"type": "Point",
			"coordinates": [
				2.3494263,
				48.8446768
			]
		},
		"adress": {
			"addr:city": "Paris",
			"addr:housenumber": "2",
			"addr:postcode": "75005",
			"addr:street": "Place de la Contrescarpe"
		},
		"category": "cafe",
		"name": "Café Delmas"
	},
	 {
		"loc": {
			"type": "Point",
			"coordinates": [
				0.6685969,
				47.4043687
			]
		},
		"category": "cafe"
	},
	 {
		"loc": {
			"type": "Point",
			"coordinates": [
				2.3748786,
				48.8489233
			]
		},
		"category": "pub",
		"name": "Le P'tit Coin de l'Opéra"
	},
	 {
		"loc": {
			"type": "Point",
			"coordinates": [
				2.3725445,
				48.8460336
			]
		},
		"category": "cafe",
		"name": "La consigne"
	},
	 {
		"loc": {
			"type": "Point",
			"coordinates": [
				2.3417712,
				48.848301
			]
		},
		"category": "pub",
		"name": "Mad Maker"
	},
	 {
		"loc": {
			"type": "Point",
			"coordinates": [
				2.3770331,
				48.8478209
			],
			"geometry": [
				[
					2.3769007,
					48.8480245
				],
				[
					2.3768995,
					48.8480252
				],
				[
					2.3768302,
					48.8479416
				],
				[
					2.3769469,
					48.8478722
				],
				[
					2.3770331,
					48.8478209
				],
				[
					2.3770331,
					48.8478209
				],
				[
					2.3770547,
					48.847808
				],
				[
					2.3770815,
					48.8478111
				],
				[
					2.377126,
					48.8478663
				],
				[
					2.3771742,
					48.8479261
				],
				[
					2.3771142,
					48.8479454
				],
				[
					2.3771179,
					48.8479517
				],
				[
					2.3769007,
					48.8480245
				]
			]
		},
		"category": "cafe",
		"name": "Le Rossli",
		"opening_hours": "Tu-Fr 06:30-21:00"
	},
	 {
		"loc": {
			"type": "Point",
			"coordinates": [
				2.3785877,
				48.8497251
			]
		},
		"category": "cafe",
		"name": "Le Gévaudan",
		"opening_hours": "Mo-Sa 06:00-22:30"
	},
	 {
		"loc": {
			"type": "Point",
			"coordinates": [
				2.3720668,
				48.8459544
			]
		},
		"category": "cafe",
		"name": "L'Express de Lyon"
	},
	 {
		"loc": {
			"type": "Point",
			"coordinates": [
				2.3451631,
				48.8863208
			]
		},
		"category": "bar"
	},
	 {
		"loc": {
			"type": "Point",
			"coordinates": [
				2.344949,
				48.8864916
			]
		},
		"category": "bar",
		"name": "Botak"
	},
	 {
		"loc": {
			"type": "Point",
			"coordinates": [
				2.3752807,
				48.8462033
			]
		},
		"category": "cafe",
		"name": "Station Café",
		"opening_hours": "Mo-Su 00:00-02:00,07:30-24:00"
	},
	 {
		"loc": {
			"type": "Point",
			"coordinates": [
				2.3755864,
				48.8458957
			]
		},
		"category": "cafe",
		"name": "Le Killy-Jen"
	},
	 {
		"loc": {
			"type": "Point",
			"coordinates": [
				2.375295,
				48.8458632
			]
		},
		"category": "pub",
		"name": "Le Maximilien"
	},
	 {
		"loc": {
			"type": "Point",
			"coordinates": [
				2.3690947,
				48.8467932
			]
		},
		"category": "pub",
		"name": "La Belle Époque"
	},
	 {
		"loc": {
			"type": "Point",
			"coordinates": [
				2.3683266,
				48.8463589
			]
		},
		"category": "cafe",
		"name": "Le petit Rollin",
		"opening_hours": "Mo-Sa 10:00-20:00"
	},
	 {
		"loc": {
			"type": "Point",
			"coordinates": [
				2.3684999,
				48.8454329
			]
		},
		"category": "cafe",
		"name": "Brasserie de l'Aubrac",
		"opening_hours": "Mo-Sa 08:00-19:00"
	},
	 {
		"loc": {
			"type": "Point",
			"coordinates": [
				2.3707898,
				48.8456688
			],
			"geometry": [
				[
					2.3707235,
					48.8456624
				],
				[
					2.3707898,
					48.8456688
				],
				[
					2.3707898,
					48.8456688
				],
				[
					2.370902,
					48.8456797
				],
				[
					2.3709161,
					48.845707
				],
				[
					2.3708782,
					48.845731
				],
				[
					2.3708194,
					48.8457683
				],
				[
					2.3707871,
					48.8457445
				],
				[
					2.3707064,
					48.845685
				],
				[
					2.3707235,
					48.8456624
				]
			]
		},
		"adress": {
			"addr:housenumber": "13",
			"addr:street": "Boulevard Diderot"
		},
		"category": "cafe",
		"name": "Le Restaurant du Boulanger"
	},
	 {
		"loc": {
			"type": "Point",
			"coordinates": [
				2.3715126,
				48.8457759
			]
		},
		"category": "cafe",
		"name": "Le Terminus",
		"opening_hours": "Mo-Sa 06:00-02:00"
	},
	 {
		"loc": {
			"type": "Point",
			"coordinates": [
				2.3706835,
				48.8458427
			]
		},
		"category": "cafe",
		"name": "Caviste",
		"opening_hours": "Mo-Sa 08:00-21:00"
	},
	 {
		"loc": {
			"type": "Point",
			"coordinates": [
				2.3322906,
				48.8269211
			]
		},
		"category": "cafe",
		"name": "Les Jardins d'Issoire"
	},
	 {
		"loc": {
			"type": "Point",
			"coordinates": [
				2.3324515,
				48.8267472
			]
		},
		"category": "cafe"
	},
	 {
		"loc": {
			"type": "Point",
			"coordinates": [
				2.3569948,
				48.8260575
			]
		},
		"category": "cafe",
		"name": "Le Canon"
	},
	 {
		"loc": {
			"type": "Point",
			"coordinates": [
				2.3595541,
				48.8263215
			]
		},
		"category": "cafe",
		"name": "Le Coche"
	},
	 {
		"loc": {
			"type": "Point",
			"coordinates": [
				2.3607276,
				48.8286985
			]
		},
		"category": "cafe"
	},
	 {
		"loc": {
			"type": "Point",
			"coordinates": [
				2.3768369,
				48.8309136
			]
		},
		"adress": {
			"addr:city": "Paris",
			"addr:housenumber": "114",
			"addr:postcode": "75013",
			"addr:street": "Avenue de France"
		},
		"category": "pub",
		"name": "The Frog & British Library"
	},
	 {
		"loc": {
			"type": "Point",
			"coordinates": [
				2.3695612,
				48.8515184
			]
		},
		"category": "cafe",
		"name": "Les associés"
	},
	 {
		"loc": {
			"type": "Point",
			"coordinates": [
				2.3697078,
				48.8500437
			]
		},
		"category": "pub",
		"name": "L'OPA - Offre Publique d'Ambiance",
		"opening_hours": "We-Th 19:30-2:00; Fr-Sa 19:30-6:00"
	},
	 {
		"loc": {
			"type": "Point",
			"coordinates": [
				2.0991829,
				49.0467939
			]
		},
		"category": "cafe",
		"name": "Le Saint-Valentin"
	},
	 {
		"loc": {
			"type": "Point",
			"coordinates": [
				2.1004801,
				49.0482176
			]
		},
		"category": "bar",
		"name": "Les Arcades"
	},
	 {
		"loc": {
			"type": "Point",
			"coordinates": [
				2.0915983,
				49.0497272
			],
			"geometry": [
				[
					2.0914408,
					49.0497298
				],
				[
					2.0915848,
					49.0497344
				],
				[
					2.0915983,
					49.0497272
				],
				[
					2.0915983,
					49.0497272
				],
				[
					2.091612,
					49.0497198
				],
				[
					2.0916062,
					49.0497032
				],
				[
					2.0915922,
					49.0496632
				],
				[
					2.0914473,
					49.0496574
				],
				[
					2.0914408,
					49.0497298
				]
			]
		},
		"category": "cafe",
		"name": "Le Val d'Oise"
	},
	 {
		"loc": {
			"type": "Point",
			"coordinates": [
				2.0925853,
				49.0490402
			]
		},
		"category": "bar",
		"name": "Bijou Bar"
	},
	 {
		"loc": {
			"type": "Point",
			"coordinates": [
				1.8663011,
				49.0355787
			]
		},
		"category": "cafe",
		"name": "Relais du Vexin"
	},
	 {
		"loc": {
			"type": "Point",
			"coordinates": [
				2.092414,
				49.0497553
			]
		},
		"category": "bar",
		"name": "Bar Moderne"
	},
	 {
		"loc": {
			"type": "Point",
			"coordinates": [
				2.0899251,
				49.0497498
			]
		},
		"category": "pub",
		"name": "Les Lavandières"
	},
	 {
		"loc": {
			"type": "Point",
			"coordinates": [
				2.335878,
				48.8896403
			]
		},
		"category": "cafe",
		"name": "Le Cépage Montmartrois"
	},
	 {
		"loc": {
			"type": "Point",
			"coordinates": [
				2.0998346,
				49.0497595
			]
		},
		"category": "bar",
		"name": "Le Fontenoy"
	},
	 {
		"loc": {
			"type": "Point",
			"coordinates": [
				2.1019647,
				49.0490367
			]
		},
		"category": "bar",
		"name": "Le Celtique"
	},
	 {
		"loc": {
			"type": "Point",
			"coordinates": [
				2.3680462,
				48.8531236
			]
		},
		"category": "cafe",
		"name": "Cafe Français"
	},
	 {
		"loc": {
			"type": "Point",
			"coordinates": [
				2.3680045,
				48.8529971
			]
		},
		"category": "cafe",
		"name": "Corso"
	},
	 {
		"loc": {
			"type": "Point",
			"coordinates": [
				0.8493435,
				49.8627139
			]
		},
		"category": "bar",
		"name": "Le Champêtre"
	},
	 {
		"loc": {
			"type": "Point",
			"coordinates": [
				0.8873457,
				49.8650231
			]
		},
		"category": "bar",
		"name": "Bar Le Doris"
	},
	 {
		"loc": {
			"type": "Point",
			"coordinates": [
				2.0978795,
				49.0511253
			]
		},
		"category": "bar",
		"name": "Le Flash"
	},
	 {
		"loc": {
			"type": "Point",
			"coordinates": [
				2.326107,
				48.875671
			]
		},
		"category": "cafe",
		"name": "Starbucks"
	},
	 {
		"loc": {
			"type": "Point",
			"coordinates": [
				2.0966183,
				49.0518324
			]
		},
		"category": "bar",
		"name": "Au Maryland"
	},
	 {
		"loc": {
			"type": "Point",
			"coordinates": [
				2.061048,
				49.0318009
			]
		},
		"category": "pub",
		"name": "Crêperie du Port"
	},
	 {
		"loc": {
			"type": "Point",
			"coordinates": [
				2.2164889,
				48.9396921
			]
		},
		"category": "cafe"
	},
	 {
		"loc": {
			"type": "Point",
			"coordinates": [
				2.2089444,
				48.9343189
			]
		},
		"category": "cafe"
	},
	 {
		"loc": {
			"type": "Point",
			"coordinates": [
				2.2062579,
				48.9452675
			]
		},
		"category": "cafe"
	},
	 {
		"loc": {
			"type": "Point",
			"coordinates": [
				2.2053754,
				48.9327128
			],
			"geometry": [
				[
					2.2052776,
					48.9326595
				],
				[
					2.2053702,
					48.9326934
				],
				[
					2.2053754,
					48.9327128
				],
				[
					2.2053754,
					48.9327128
				],
				[
					2.2053807,
					48.9327326
				],
				[
					2.2053458,
					48.9327665
				],
				[
					2.205223,
					48.932722
				],
				[
					2.2052776,
					48.9326595
				]
			]
		},
		"category": "cafe",
		"name": "Chez Jean-Louis"
	},
	 {
		"loc": {
			"type": "Point",
			"coordinates": [
				2.2576534,
				48.9131913
			]
		},
		"category": "cafe"
	},
	 {
		"loc": {
			"type": "Point",
			"coordinates": [
				2.2574302,
				48.9128021
			]
		},
		"category": "cafe"
	},
	 {
		"loc": {
			"type": "Point",
			"coordinates": [
				2.3232267,
				48.8765103
			]
		},
		"category": "cafe",
		"name": "Le Bar Do"
	},
	 {
		"loc": {
			"type": "Point",
			"coordinates": [
				2.0953798,
				49.0528216
			]
		},
		"category": "pub",
		"name": "Au Pot de l'Amitié"
	},
	 {
		"loc": {
			"type": "Point",
			"coordinates": [
				0.6811389,
				47.3931388
			],
			"geometry": [
				[
					0.6810448,
					47.3931367
				],
				[
					0.681052,
					47.3930873
				],
				[
					0.6810655,
					47.3930122
				],
				[
					0.6811169,
					47.3930198
				],
				[
					0.6811147,
					47.3930317
				],
				[
					0.6811594,
					47.3930355
				],
				[
					0.6811675,
					47.3930522
				],
				[
					0.6811769,
					47.3930534
				],
				[
					0.6811791,
					47.3930291
				],
				[
					0.6812897,
					47.3930455
				],
				[
					0.6812805,
					47.3930704
				],
				[
					0.6812357,
					47.3930647
				],
				[
					0.6812232,
					47.3931406
				],
				[
					0.6811389,
					47.3931388
				],
				[
					0.6811389,
					47.3931388
				],
				[
					0.6810448,
					47.3931367
				]
			]
		},
		"adress": {
			"addr:city": "Tours",
			"addr:housenumber": "16 bis",
			"addr:postcode": "37000",
			"addr:street": "Rue de la Grande Échelle"
		},
		"category": "pub",
		"name": "Hurricane's"
	},
	 {
		"loc": {
			"type": "Point",
			"coordinates": [
				0.691889,
				47.3961491
			],
			"geometry": [
				[
					0.691863,
					47.3961465
				],
				[
					0.691835,
					47.3962224
				],
				[
					0.6918114,
					47.3962862
				],
				[
					0.6918623,
					47.3962899
				],
				[
					0.6919142,
					47.3961516
				],
				[
					0.691889,
					47.3961491
				],
				[
					0.691889,
					47.3961491
				],
				[
					0.691863,
					47.3961465
				]
			]
		},
		"adress": {
			"addr:city": "Tours",
			"addr:housenumber": "106",
			"addr:postcode": "37000",
			"addr:street": "Rue Colbert"
		},
		"category": "bar",
		"name": "Le Gros Bar"
	},
	 {
		"loc": {
			"type": "Point",
			"coordinates": [
				0.1051158,
				49.4917111
			]
		},
		"category": "cafe",
		"name": "L'eau Tarie"
	},
	 {
		"loc": {
			"type": "Point",
			"coordinates": [
				0.0938163,
				49.4962794
			]
		},
		"category": "bar",
		"name": "L'Abri Côtier"
	},
	 {
		"loc": {
			"type": "Point",
			"coordinates": [
				2.481045,
				48.8399557
			]
		},
		"category": "bar",
		"name": "Le Paul Bert"
	},
	 {
		"loc": {
			"type": "Point",
			"coordinates": [
				2.4931695,
				48.8384839
			]
		},
		"category": "bar",
		"name": "Le Chemin de Fer"
	},
	 {
		"loc": {
			"type": "Point",
			"coordinates": [
				2.1285007,
				48.8078626
			]
		},
		"category": "cafe",
		"name": "L'Aparthé"
	},
	 {
		"loc": {
			"type": "Point",
			"coordinates": [
				1.9277442,
				49.0772972
			]
		},
		"category": "cafe",
		"name": "Café de la Poste"
	},
	 {
		"loc": {
			"type": "Point",
			"coordinates": [
				2.0999592,
				49.0504279
			],
			"geometry": [
				[
					2.1000017,
					49.0504292
				],
				[
					2.0999592,
					49.0504279
				],
				[
					2.0999592,
					49.0504279
				],
				[
					2.0999243,
					49.0504269
				],
				[
					2.0999114,
					49.0503252
				],
				[
					2.0999778,
					49.0503189
				],
				[
					2.1000017,
					49.0504292
				]
			]
		},
		"adress": {
			"addr:housenumber": "11"
		},
		"category": "bar",
		"name": "Bar de la Mairie"
	},